{
"type": "FeatureCollection",
"features": [
{ "type": "Feature", "properties": { "name": "Ruta 101: Las Brisas -> Mercado Mayoreo", "attributes": { "operator": "Cooperativa Cootbusa", "to": "Mercado Mayoreo", "ref": "101", "network": "IRTRAMMA", "from": "Las Brisas" } }, "geometry": { "type": "LineString", "coordinates": [ [ -86.313736000134341, 12.157853523330315 ], [ -86.313512948449286, 12.157912887415717 ], [ -86.312483928291329, 12.154539914990549 ], [ -86.311529288638894, 12.154777901117185 ], [ -86.311114626303748, 12.154794059577101 ], [ -86.310406214870696, 12.154678227986734 ], [ -86.310417443811744, 12.154082647322408 ], [ -86.310347734545701, 12.153825691879156 ], [ -86.30981665054972, 12.152593426373016 ], [ -86.309703911981558, 12.152446506081182 ], [ -86.309569793509638, 12.152362551592272 ], [ -86.309403515350553, 12.152315393044514 ], [ -86.309175522931454, 12.152323472349387 ], [ -86.308947620343858, 12.152441324790271 ], [ -86.308778377744332, 12.152671057863268 ], [ -86.307971690619198, 12.152599573663791 ], [ -86.307172190016331, 12.152782060316754 ], [ -86.307343588572536, 12.153378697710831 ], [ -86.305312767209742, 12.153936693850916 ], [ -86.305844569857925, 12.155639391551702 ], [ -86.30517370800375, 12.155800360861754 ], [ -86.304945985079229, 12.155823456832247 ], [ -86.304362080144557, 12.155797375070744 ], [ -86.304412745126569, 12.154758756853614 ], [ -86.302518467686951, 12.154669094940317 ], [ -86.302565269913245, 12.153631877407637 ], [ -86.302466814558116, 12.153180579819621 ], [ -86.298015123336128, 12.154271894935482 ], [ -86.29788747273426, 12.154272421842798 ], [ -86.297451699989935, 12.154377803285712 ], [ -86.297280840422886, 12.154451745906558 ], [ -86.294372724353622, 12.155061464382706 ], [ -86.289772811109756, 12.15567557233255 ], [ -86.288605450398023, 12.155652476349221 ], [ -86.288730316222527, 12.152417877252168 ], [ -86.282643691183452, 12.152132730434309 ], [ -86.282687169643211, 12.151762047896128 ], [ -86.282686989980135, 12.151364580094798 ], [ -86.282657884564927, 12.151221259699097 ], [ -86.282084939076725, 12.150612761889887 ], [ -86.28200975008744, 12.150481560130553 ], [ -86.281944981555455, 12.150260519269219 ], [ -86.282351648884571, 12.145900259746529 ], [ -86.279397898398869, 12.145601405909455 ], [ -86.278031021862546, 12.145318798593001 ], [ -86.27569773774357, 12.144900595419513 ], [ -86.275548437743353, 12.145732785715783 ], [ -86.275318469030623, 12.1458526609504 ], [ -86.275153448512938, 12.145893058453202 ], [ -86.27500513665953, 12.145861091734108 ], [ -86.274859789246563, 12.145721895948205 ], [ -86.274684438103094, 12.14565076116515 ], [ -86.274588498030738, 12.145656557333375 ], [ -86.27444934899323, 12.145723828003778 ], [ -86.274189735876121, 12.145672013781349 ], [ -86.27383759628475, 12.145392831551689 ], [ -86.273601968185716, 12.145296492098444 ], [ -86.273213536656868, 12.145223864246907 ], [ -86.272866607294148, 12.145219912307629 ], [ -86.272744975404677, 12.145260924652465 ], [ -86.272445836415073, 12.145429101546485 ], [ -86.272300399170561, 12.145564433372062 ], [ -86.272121364934435, 12.145637148951426 ], [ -86.271568451877073, 12.145631616244998 ], [ -86.271052100251751, 12.145496899199051 ], [ -86.270760237615931, 12.145353575643774 ], [ -86.270500175341184, 12.145119796492832 ], [ -86.270343329492576, 12.144878727994854 ], [ -86.27018962774747, 12.144780719756207 ], [ -86.267895510174881, 12.144352679767843 ], [ -86.265626635261796, 12.14397241387473 ], [ -86.264098870458085, 12.144121007447719 ], [ -86.263596263056613, 12.144063923638123 ], [ -86.262969508482882, 12.143921828809679 ], [ -86.262437436340107, 12.143940973852793 ], [ -86.262209623584056, 12.14399287623338 ], [ -86.26198639223594, 12.144063221068071 ], [ -86.26161709482264, 12.144271093897952 ], [ -86.260453327372062, 12.145282177299757 ], [ -86.260224167143093, 12.144693601291575 ], [ -86.259943713111383, 12.14363632160439 ], [ -86.257432921892274, 12.143173853731495 ], [ -86.256697830495284, 12.142664049154348 ], [ -86.255850719182362, 12.141973593922938 ], [ -86.255625421709098, 12.141915894899247 ], [ -86.255542237713769, 12.142065280017057 ], [ -86.255478008170982, 12.142518791995382 ], [ -86.255395183501776, 12.142554974559923 ], [ -86.254284416652951, 12.14245916101058 ], [ -86.25371165082781, 12.142370460993746 ], [ -86.251135192761424, 12.142172949661985 ], [ -86.250778381930573, 12.145640749601581 ], [ -86.250718104975007, 12.146553732395427 ], [ -86.250668877297429, 12.146794887197029 ], [ -86.25060087483044, 12.146999508543429 ], [ -86.250405401424615, 12.147386180984467 ], [ -86.249767507741339, 12.148055457575005 ], [ -86.249453366886499, 12.14842974588851 ], [ -86.24923166267439, 12.148866561288479 ], [ -86.249156922842744, 12.149122467685551 ], [ -86.249070504912396, 12.152686865177504 ], [ -86.236955645327711, 12.151589484065022 ], [ -86.237455108625682, 12.146395216465487 ], [ -86.238050511995993, 12.137975909014033 ], [ -86.2384738879894, 12.134194124668699 ], [ -86.23720429899835, 12.133504350082212 ], [ -86.236743193763019, 12.133219358660416 ], [ -86.235020584374197, 12.132037848600127 ], [ -86.234416197851047, 12.131705956888661 ], [ -86.234220544782147, 12.131660902491101 ], [ -86.234175179860316, 12.131454776329514 ], [ -86.234295733771432, 12.130819622195276 ], [ -86.23398815061816, 12.130773074612097 ], [ -86.233904517465206, 12.130727317451642 ], [ -86.233853223662479, 12.130649855215855 ], [ -86.234102595985348, 12.128466148641021 ], [ -86.237484124209374, 12.12740107580548 ], [ -86.237994996111425, 12.127149715536646 ], [ -86.238345608566831, 12.126898267203927 ], [ -86.238287936725584, 12.126813953354334 ], [ -86.237585813499521, 12.127230955341973 ], [ -86.236510440272895, 12.127592098912125 ], [ -86.234119035155061, 12.128316404593239 ], [ -86.234471983230179, 12.125491100694687 ], [ -86.231018679614962, 12.124999881727051 ], [ -86.231321142371129, 12.123847054971719 ], [ -86.231826085392328, 12.122230577249553 ], [ -86.232136543154525, 12.12171555072225 ], [ -86.232963891531213, 12.120698054225501 ], [ -86.231748740446363, 12.119769788391263 ], [ -86.230925434488483, 12.12074539402774 ], [ -86.230156746099865, 12.121736453932851 ], [ -86.230165280095051, 12.12186248796213 ], [ -86.229537806869104, 12.121790205038339 ], [ -86.229412851213084, 12.121806014184944 ], [ -86.229233547482352, 12.121926427154211 ], [ -86.229104639239083, 12.1219634029712 ], [ -86.228863890742957, 12.121936527437265 ], [ -86.227320405421779, 12.121591624511417 ], [ -86.22614900229128, 12.121274475030722 ], [ -86.225269282133553, 12.120942482093715 ], [ -86.22453499922031, 12.120790362440646 ], [ -86.22453616703018, 12.121161790701855 ], [ -86.224508229424842, 12.121305566411603 ], [ -86.22437033802872, 12.121764471258805 ], [ -86.223174680385569, 12.12716262608034 ], [ -86.223133717208611, 12.127284793166899 ], [ -86.222597243320919, 12.127189588914456 ], [ -86.222204949036353, 12.129016204793789 ], [ -86.220122384713164, 12.128844153182847 ], [ -86.219360793015298, 12.128739112941075 ], [ -86.21926763772035, 12.128683167578025 ], [ -86.217592369546992, 12.128408885824475 ], [ -86.217517000894645, 12.128424958057977 ], [ -86.216396801735357, 12.128251852147875 ], [ -86.213278479889581, 12.127927157501976 ], [ -86.211402168755654, 12.127683526474742 ], [ -86.208150177595613, 12.127152525995179 ], [ -86.20730010184225, 12.126970109608898 ], [ -86.205229215617777, 12.126216378181292 ], [ -86.204384529756098, 12.125845747404071 ], [ -86.201288845455508, 12.13061367103451 ], [ -86.200007039376601, 12.13243209571927 ], [ -86.198900135283509, 12.134156623600713 ], [ -86.198761615066687, 12.13424260379327 ], [ -86.198619142262629, 12.134276064923018 ], [ -86.19838998203366, 12.134250859295491 ], [ -86.197912168134025, 12.133993533414612 ], [ -86.197219836544548, 12.133778626592642 ], [ -86.196584637807149, 12.133689923685472 ], [ -86.194493269994197, 12.133487926856004 ], [ -86.194413140270854, 12.13495687943786 ] ] } },
{ "type": "Feature", "properties": { "name": "Terminal San Miguel Arcángel", "attributes": { "official_status": "IRTRAMMA:bus_stop" } }, "geometry": { "type": "Point", "coordinates": [ -86.313717315176433, 12.157807683006791 ] } },
{ "type": "Feature", "properties": { "name": "Las Brisas", "attributes": { "official_status": "IRTRAMMA:bus_stop" } }, "geometry": { "type": "Point", "coordinates": [ -86.312121008916534, 12.154587951321821 ] } },
{ "type": "Feature", "properties": { "name": "Colegio Manuel Olivares", "attributes": { "official_status": "IRTRAMMA:bus_stop" } }, "geometry": { "type": "Point", "coordinates": [ -86.309022809333158, 12.152323121075264 ] } },
{ "type": "Feature", "properties": { "name": "Parque Linda Vista", "attributes": { "official_status": "IRTRAMMA:bus_stop" } }, "geometry": { "type": "Point", "coordinates": [ -86.305621697835932, 12.155648788017103 ] } },
{ "type": "Feature", "properties": { "name": "Francisco Morazán", "attributes": { "official_status": "IRTRAMMA:bus_stop" } }, "geometry": { "type": "Point", "coordinates": [ -86.303956670456827, 12.154702465685327 ] } },
{ "type": "Feature", "properties": { "name": "División Comercial Morazán", "attributes": { "official_status": "IRTRAMMA:bus_stop" } }, "geometry": { "type": "Point", "coordinates": [ -86.302549998553417, 12.153358323891954 ] } },
{ "type": "Feature", "properties": { "name": "Semáforo Ceibita", "attributes": { "official_status": "none" } }, "geometry": { "type": "Point", "coordinates": [ -86.298410202398088, 12.154120233401978 ] } },
{ "type": "Feature", "properties": { "name": "Leche Agria El Ternero", "attributes": { "official_status": "IRTRAMMA:bus_stop" } }, "geometry": { "type": "Point", "coordinates": [ -86.296123181516236, 12.154669973117862 ] } },
{ "type": "Feature", "properties": { "name": "ALKE", "attributes": { "official_status": "IRTRAMMA:bus_stop" } }, "geometry": { "type": "Point", "coordinates": [ -86.291082464962457, 12.15542994688624 ] } },
{ "type": "Feature", "properties": { "name": "Partido Camino Cristiano Nicaragüense", "attributes": { "official_status": "IRTRAMMA:bus_stop" } }, "geometry": { "type": "Point", "coordinates": [ -86.288680549555792, 12.1547922154051 ] } },
{ "type": "Feature", "properties": { "name": "Ministerio de Hacienda y Crédito Público", "attributes": { "official_status": "IRTRAMMA:bus_stop" } }, "geometry": { "type": "Point", "coordinates": [ -86.285412837878283, 12.152208078776217 ] } },
{ "type": "Feature", "properties": { "name": "MTI", "attributes": { "official_status": "IRTRAMMA:bus_stop" } }, "geometry": { "type": "Point", "coordinates": [ -86.283504187394101, 12.152156968364803 ] } },
{ "type": "Feature", "properties": { "name": "Estadio Nacional", "attributes": { "official_status": "IRTRAMMA:bus_stop" } }, "geometry": { "type": "Point", "coordinates": [ -86.282045682698808, 12.14984469498209 ] } },
{ "type": "Feature", "properties": { "name": "27 De Mayo", "attributes": { "official_status": "IRTRAMMA:bus_stop" } }, "geometry": { "type": "Point", "coordinates": [ -86.282141532939633, 12.145823416667376 ] } },
{ "type": "Feature", "properties": { "name": "Las Mangueras", "attributes": { "official_status": "IRTRAMMA:bus_stop" } }, "geometry": { "type": "Point", "coordinates": [ -86.279159844848579, 12.145489961357162 ] } },
{ "type": "Feature", "properties": { "name": "Central Line", "attributes": { "official_status": "IRTRAMMA:bus_stop" } }, "geometry": { "type": "Point", "coordinates": [ -86.276137822401267, 12.144917808330833 ] } },
{ "type": "Feature", "properties": { "name": "Plaza Inter", "attributes": { "official_status": "IRTRAMMA:bus_stop" } }, "geometry": { "type": "Point", "coordinates": [ -86.273874786537519, 12.145336889685634 ] } },
{ "type": "Feature", "properties": { "name": "El Redentor", "attributes": { "official_status": "IRTRAMMA:bus_stop" } }, "geometry": { "type": "Point", "coordinates": [ -86.267135176118416, 12.144169396944424 ] } },
{ "type": "Feature", "properties": { "name": "Funeraria La Católica y La Auxiliadora", "attributes": { "official_status": "IRTRAMMA:bus_stop" } }, "geometry": { "type": "Point", "coordinates": [ -86.261567417987436, 12.144194425991003 ] } },
{ "type": "Feature", "properties": { "name": "Taller Lacayo", "attributes": { "official_status": "none" } }, "geometry": { "type": "Point", "coordinates": [ -86.259291266720538, 12.143485620046219 ] } },
{ "type": "Feature", "properties": { "name": "Autoservicios Mayorga", "attributes": { "official_status": "IRTRAMMA:bus_stop" } }, "geometry": { "type": "Point", "coordinates": [ -86.256719030735965, 12.142630062147836 ] } },
{ "type": "Feature", "properties": { "name": "Casa del Adulto Mayor", "attributes": { "official_status": "IRTRAMMA:bus_stop" } }, "geometry": { "type": "Point", "coordinates": [ -86.253289801970396, 12.142304506803651 ] } },
{ "type": "Feature", "properties": { "name": "Cerrajería Tenderí", "attributes": { "official_status": "IRTRAMMA:bus_stop" } }, "geometry": { "type": "Point", "coordinates": [ -86.250968285781624, 12.143532867979815 ] } },
{ "type": "Feature", "properties": { "name": "Hospital Solidaridad", "attributes": { "official_status": "IRTRAMMA:bus_stop" } }, "geometry": { "type": "Point", "coordinates": [ -86.249251964599807, 12.148622246852751 ] } },
{ "type": "Feature", "properties": { "name": "Universidad de las Americas", "attributes": { "official_status": "IRTRAMMA:bus_stop" } }, "geometry": { "type": "Point", "coordinates": [ -86.249022624707749, 12.15196798270332 ] } },
{ "type": "Feature", "properties": { "name": "Ajax Delgado", "attributes": { "official_status": "none" } }, "geometry": { "type": "Point", "coordinates": [ -86.248287892636881, 12.152568046842443 ] } },
{ "type": "Feature", "properties": { "name": "Súper de los Militares", "attributes": { "official_status": "IRTRAMMA:bus_stop" } }, "geometry": { "type": "Point", "coordinates": [ -86.246068874222061, 12.15237036744016 ] } },
{ "type": "Feature", "properties": { "name": "SINSA Carretera Norte", "attributes": { "official_status": "IRTRAMMA:bus_stop" } }, "geometry": { "type": "Point", "coordinates": [ -86.242723278609404, 12.15207046704476 ] } },
{ "type": "Feature", "properties": { "name": "Palí San Luis", "attributes": { "official_status": "IRTRAMMA:bus_stop" } }, "geometry": { "type": "Point", "coordinates": [ -86.24128300971438, 12.151949979880047 ] } },
{ "type": "Feature", "properties": { "name": "Distribuidora La Universal", "attributes": { "official_status": "IRTRAMMA:bus_stop" } }, "geometry": { "type": "Point", "coordinates": [ -86.237019605375934, 12.151416305390216 ] } },
{ "type": "Feature", "properties": { "name": "Colonial Norte", "attributes": { "official_status": "IRTRAMMA:bus_stop" } }, "geometry": { "type": "Point", "coordinates": [ -86.2373476701177, 12.148220646827527 ] } },
{ "type": "Feature", "properties": { "name": "Parque Maestro Gabriel", "attributes": { "official_status": "IRTRAMMA:bus_stop" } }, "geometry": { "type": "Point", "coordinates": [ -86.237537214642657, 12.145981493834681 ] } },
{ "type": "Feature", "properties": { "name": "Iglesia Carmen de Santidad", "attributes": { "official_status": "IRTRAMMA:bus_stop" } }, "geometry": { "type": "Point", "coordinates": [ -86.237798265064214, 12.142308985717214 ] } },
{ "type": "Feature", "properties": { "name": "Cementerio Oriental", "attributes": { "official_status": "IRTRAMMA:bus_stop" } }, "geometry": { "type": "Point", "coordinates": [ -86.237986012958586, 12.139674668963513 ] } },
{ "type": "Feature", "properties": { "name": "Barrio Meneses", "attributes": { "official_status": "IRTRAMMA:bus_stop" } }, "geometry": { "type": "Point", "coordinates": [ -86.238354142562031, 12.136089546481113 ] } },
{ "type": "Feature", "properties": { "name": "Hospital Japonés", "attributes": { "official_status": "IRTRAMMA:bus_stop" } }, "geometry": { "type": "Point", "coordinates": [ -86.238308148819485, 12.134012415697601 ] } },
{ "type": "Feature", "properties": { "name": "Colonia Nicarao", "attributes": { "official_status": "IRTRAMMA:bus_stop" } }, "geometry": { "type": "Point", "coordinates": [ -86.234062531123669, 12.129082777056535 ] } },
{ "type": "Feature", "properties": { "name": "Colegio 14 de Septiembre", "attributes": { "official_status": "none" } }, "geometry": { "type": "Point", "coordinates": [ -86.23333094315629, 12.125284969763017 ] } },
{ "type": "Feature", "properties": { "name": "Edmundo Matamoros", "attributes": { "official_status": "IRTRAMMA:bus_stop" } }, "geometry": { "type": "Point", "coordinates": [ -86.231678851517273, 12.12290957813142 ] } },
{ "type": "Feature", "properties": { "name": "Tanque", "attributes": { "official_status": "IRTRAMMA:bus_stop" } }, "geometry": { "type": "Point", "coordinates": [ -86.231978080338408, 12.119873163410274 ] } },
{ "type": "Feature", "properties": { "name": "Semaforos Jardines de Veracruz", "attributes": { "official_status": "IRTRAMMA:bus_stop" } }, "geometry": { "type": "Point", "coordinates": [ -86.228198867938104, 12.121740318391787 ] } },
{ "type": "Feature", "properties": { "name": "Primero de Mayo", "attributes": { "official_status": "IRTRAMMA:bus_stop" } }, "geometry": { "type": "Point", "coordinates": [ -86.22535884416736, 12.120928078157998 ] } },
{ "type": "Feature", "properties": { "name": "Colegio Primero de Mayo", "attributes": { "official_status": "IRTRAMMA:bus_stop" } }, "geometry": { "type": "Point", "coordinates": [ -86.224094285741913, 12.122958674105424 ] } },
{ "type": "Feature", "properties": { "name": "Iglesia San José Obrero", "attributes": { "official_status": "none" } }, "geometry": { "type": "Point", "coordinates": [ -86.223670101264759, 12.124814653385087 ] } },
{ "type": "Feature", "properties": { "name": "Parque Primero de Mayo", "attributes": { "official_status": "IRTRAMMA:bus_stop" } }, "geometry": { "type": "Point", "coordinates": [ -86.223239987906723, 12.12661669397291 ] } },
{ "type": "Feature", "properties": { "name": "Plaza La Sabana", "attributes": { "official_status": "IRTRAMMA:bus_stop" } }, "geometry": { "type": "Point", "coordinates": [ -86.221924225510065, 12.128875946291352 ] } },
{ "type": "Feature", "properties": { "name": "Barrio Americas 1", "attributes": { "official_status": "IRTRAMMA:bus_stop" } }, "geometry": { "type": "Point", "coordinates": [ -86.219604326288817, 12.128669115365678 ] } },
{ "type": "Feature", "properties": { "name": "Mercado Iván Montenegro Sureste", "attributes": { "official_status": "IRTRAMMA:bus_stop" } }, "geometry": { "type": "Point", "coordinates": [ -86.214177244331353, 12.127880697240355 ] } },
{ "type": "Feature", "properties": { "name": "Colegio Inmaculada Concepción", "attributes": { "official_status": "IRTRAMMA:bus_stop" } }, "geometry": { "type": "Point", "coordinates": [ -86.209618833253614, 12.127306310728468 ] } },
{ "type": "Feature", "properties": { "name": "El Madroño", "attributes": { "official_status": "none" } }, "geometry": { "type": "Point", "coordinates": [ -86.207593401782503, 12.126930587505871 ] } },
{ "type": "Feature", "properties": { "name": "Predio Mayoreo", "attributes": { "official_status": "IRTRAMMA:bus_stop" } }, "geometry": { "type": "Point", "coordinates": [ -86.203835389622924, 12.126525266044503 ] } },
{ "type": "Feature", "properties": { "name": "Entrada Norte a Laureles Norte", "attributes": { "official_status": "IRTRAMMA:bus_stop" } }, "geometry": { "type": "Point", "coordinates": [ -86.201768096659578, 12.129716354461387 ] } },
{ "type": "Feature", "properties": { "name": "Semaforos Mayoreo", "attributes": { "official_status": "IRTRAMMA:bus_stop" } }, "geometry": { "type": "Point", "coordinates": [ -86.199564349604572, 12.1329838123616 ] } },
{ "type": "Feature", "properties": { "name": "Parque Concepción de María", "attributes": { "official_status": "none" } }, "geometry": { "type": "Point", "coordinates": [ -86.197866084559948, 12.133912120021037 ] } },
{ "type": "Feature", "properties": { "name": "Mercado Mayoreo", "attributes": { "official_status": "IRTRAMMA:bus_station" } }, "geometry": { "type": "Point", "coordinates": [ -86.194396880764202, 12.134956176843788 ] } }
]
}
