{
"type": "FeatureCollection",
"features": [
{ "type": "Feature", "properties": { "name": "Ruta 102: Mercado Mayoreo -> Acahualinca", "attributes": { "operator": "Cooperativa Andrés Castro", "to": "Acahualinca", "ref": "102", "network": "IRTRAMMA", "from": "Mercado Mayoreo" } }, "geometry": { "type": "LineString", "coordinates": [ [ -86.194553007960593, 12.134970580021706 ], [ -86.194632329200175, 12.133640214914685 ], [ -86.197038017531057, 12.13390281061308 ], [ -86.197822336605597, 12.134117805159431 ], [ -86.198625520301135, 12.134584153027813 ], [ -86.200007039376601, 12.13243209571927 ], [ -86.201288845455508, 12.13061367103451 ], [ -86.204229300875014, 12.126074186007992 ], [ -86.204394321392698, 12.126001816398398 ], [ -86.204664804124761, 12.125968793366141 ], [ -86.205229215617777, 12.126216378181292 ], [ -86.20730010184225, 12.126970109608898 ], [ -86.208150177595613, 12.127152525995179 ], [ -86.211402168755654, 12.127683526474742 ], [ -86.213278479889581, 12.127927157501976 ], [ -86.215677520687365, 12.128168416991256 ], [ -86.216036217980303, 12.128439712894432 ], [ -86.216218575982992, 12.128502596593016 ], [ -86.216551222132694, 12.128492057426683 ], [ -86.21697864054488, 12.12834029338539 ], [ -86.217119945539068, 12.128361547382497 ], [ -86.217339134468389, 12.128589017741174 ], [ -86.217387373999145, 12.128714170268896 ], [ -86.216879915695145, 12.13699360401227 ], [ -86.218751106431966, 12.138060921918541 ], [ -86.219026350235026, 12.138186509114197 ], [ -86.219198108117368, 12.138237973500356 ], [ -86.219754973761979, 12.138297429783918 ], [ -86.220993750538767, 12.138396406462894 ], [ -86.223427017148865, 12.138494504874171 ], [ -86.224273589472631, 12.138270116780859 ], [ -86.226627714506179, 12.138287066651262 ], [ -86.227302349284571, 12.138337916255983 ], [ -86.227629605542575, 12.138405188775129 ], [ -86.227972133160392, 12.138591725018721 ], [ -86.228051184905411, 12.138599453447842 ], [ -86.228687820947243, 12.138479574948182 ], [ -86.229298405845881, 12.138412126801592 ], [ -86.229761846700953, 12.138478960186514 ], [ -86.230083533404198, 12.13866066611147 ], [ -86.230569791467488, 12.139040763943234 ], [ -86.231941249411747, 12.1390482288906 ], [ -86.232551385152732, 12.138789678121181 ], [ -86.232783150496033, 12.138537977300919 ], [ -86.23306782660957, 12.138380686123252 ], [ -86.233330314335589, 12.141092299253174 ], [ -86.233846037140196, 12.145557758994221 ], [ -86.233736981664705, 12.145650848985889 ], [ -86.233704013493778, 12.145787761471102 ], [ -86.233757463253198, 12.145916594386795 ], [ -86.233865800076458, 12.145988695125629 ], [ -86.234006476249945, 12.145990451538021 ], [ -86.234120472459509, 12.145916857848729 ], [ -86.234505400558746, 12.145946892507199 ], [ -86.234863648694045, 12.146039104156761 ], [ -86.236049335037563, 12.146227918387174 ], [ -86.238926189734954, 12.146577092629759 ], [ -86.239239881432169, 12.146583064418657 ], [ -86.239618611155962, 12.146513861915572 ], [ -86.240293784923495, 12.146243023519819 ], [ -86.240603613864991, 12.146160208741344 ], [ -86.241253275478471, 12.14611287345342 ], [ -86.242341135287532, 12.146204558122207 ], [ -86.24566157807223, 12.146368167754435 ], [ -86.246293183548488, 12.146394953004025 ], [ -86.247108494500353, 12.146370187625811 ], [ -86.247602567906611, 12.146274024167287 ], [ -86.248853292276706, 12.145786531981496 ], [ -86.249516787945552, 12.145574357117756 ], [ -86.24993854697145, 12.145472221558078 ], [ -86.250106891255697, 12.145460804855082 ], [ -86.251040600162014, 12.145201996848801 ], [ -86.251524073447925, 12.145100475892653 ], [ -86.251894718334157, 12.145079574514522 ], [ -86.252143551667842, 12.145124451000836 ], [ -86.253536569178934, 12.14555178718232 ], [ -86.253715962741182, 12.145082384783953 ], [ -86.253801931513863, 12.144939763573264 ], [ -86.253998393066496, 12.144798371780352 ], [ -86.254847031515411, 12.144589357688066 ], [ -86.257252270688639, 12.144176159178295 ], [ -86.257612764612148, 12.144016763620032 ], [ -86.258041799991844, 12.143671801446009 ], [ -86.258457719968391, 12.14399489612277 ], [ -86.260109272618237, 12.144299021033833 ], [ -86.259787046925837, 12.142923913487111 ], [ -86.259775728153272, 12.142151521122754 ], [ -86.259687603423885, 12.141108458543902 ], [ -86.259502280980769, 12.140039747687235 ], [ -86.259040097767098, 12.138279426036238 ], [ -86.258956823940252, 12.137978631535152 ], [ -86.2588952893433, 12.137878600821438 ], [ -86.25835333573238, 12.135798497969583 ], [ -86.257818838138334, 12.133914052162282 ], [ -86.257719214973321, 12.133230688063282 ], [ -86.257769071471586, 12.132958606611838 ], [ -86.257914149389975, 12.13265227312816 ], [ -86.258251017621518, 12.13237869805941 ], [ -86.258991139584111, 12.131989017773561 ], [ -86.260627690368722, 12.131398480234663 ], [ -86.262175397771728, 12.130518819273682 ], [ -86.262529064499077, 12.130339830396048 ], [ -86.262883629541719, 12.130206862133386 ], [ -86.264227239712184, 12.129746917902226 ], [ -86.265652327078911, 12.129383054641966 ], [ -86.265856064985357, 12.129396052903603 ], [ -86.266301000545567, 12.129550011994899 ], [ -86.266539413421981, 12.129507504188506 ], [ -86.266692216851808, 12.129389378120687 ], [ -86.266875024012123, 12.12908137183744 ], [ -86.267047500546681, 12.128952179475277 ], [ -86.267503395553376, 12.128749388618719 ], [ -86.268511844291325, 12.12840800756033 ], [ -86.269437468360081, 12.127987494351402 ], [ -86.274153174444066, 12.125098775516495 ], [ -86.274537204228025, 12.125082615255012 ], [ -86.27471264520301, 12.125278558359518 ], [ -86.274983038103528, 12.127227705750235 ], [ -86.274994985696807, 12.127620203449613 ], [ -86.274876677573886, 12.130111483272691 ], [ -86.274918718729182, 12.131936322626949 ], [ -86.275042416743801, 12.134693582183413 ], [ -86.275230164638188, 12.136385161511672 ], [ -86.28028561356264, 12.135341110287955 ], [ -86.280663624634187, 12.13533180092992 ], [ -86.280952522829551, 12.13547056302559 ], [ -86.281066608870645, 12.135639799990038 ], [ -86.281449650507781, 12.136561775088502 ], [ -86.281969325899652, 12.137267964754589 ], [ -86.282512537151959, 12.137910919791874 ], [ -86.282698488415775, 12.13820398592904 ], [ -86.282861802134434, 12.1386172815278 ], [ -86.282969150810871, 12.13910698241021 ], [ -86.282974001713427, 12.139639100766658 ], [ -86.282265230954252, 12.146907999789073 ], [ -86.285241529153595, 12.147470224863387 ], [ -86.287266511467053, 12.147820275676562 ], [ -86.287794631022578, 12.147883066980468 ], [ -86.287732198110348, 12.149526700933608 ], [ -86.292146968574144, 12.149750025708295 ], [ -86.29394862970797, 12.149888516833059 ], [ -86.296403366053354, 12.150140206923492 ], [ -86.296372913165214, 12.150858918697562 ], [ -86.297303837294166, 12.150907482607412 ], [ -86.297032546078356, 12.156133364166141 ], [ -86.296976670867679, 12.15790032962953 ], [ -86.294247768697588, 12.157792227263727 ], [ -86.294173208529017, 12.159628468631933 ], [ -86.294194229106665, 12.159781795529847 ], [ -86.293945126278373, 12.159775384956841 ], [ -86.293839843727085, 12.159947504397426 ], [ -86.293480517613432, 12.163319003196204 ] ] } },
{ "type": "Feature", "properties": { "name": "Mercado Mayoreo", "attributes": { "official_status": "IRTRAMMA:bus_station" } }, "geometry": { "type": "Point", "coordinates": [ -86.194659637984813, 12.134983226713848 ] } },
{ "type": "Feature", "properties": { "name": "Semaforos Mayoreo", "attributes": { "official_status": "IRTRAMMA:bus_stop" } }, "geometry": { "type": "Point", "coordinates": [ -86.199186877522195, 12.133896487241444 ] } },
{ "type": "Feature", "properties": { "name": "Entrada Norte a Laureles Norte", "attributes": { "official_status": "IRTRAMMA:bus_stop" } }, "geometry": { "type": "Point", "coordinates": [ -86.201559687513665, 12.130299079231442 ] } },
{ "type": "Feature", "properties": { "name": "Predio Mayoreo", "attributes": { "official_status": "IRTRAMMA:bus_stop" } }, "geometry": { "type": "Point", "coordinates": [ -86.203204323135836, 12.127748781670775 ] } },
{ "type": "Feature", "properties": { "name": "Palí La Sabana", "attributes": { "official_status": "none" } }, "geometry": { "type": "Point", "coordinates": [ -86.204824614413795, 12.126123193572269 ] } },
{ "type": "Feature", "properties": { "name": "El Madroño", "attributes": { "official_status": "none" } }, "geometry": { "type": "Point", "coordinates": [ -86.206495121516141, 12.126747819659903 ] } },
{ "type": "Feature", "properties": { "name": "Colegio Inmaculada Concepción", "attributes": { "official_status": "IRTRAMMA:bus_stop" } }, "geometry": { "type": "Point", "coordinates": [ -86.209643177597812, 12.12747019544654 ] } },
{ "type": "Feature", "properties": { "name": "Farmacia Sophya", "attributes": { "official_status": "IRTRAMMA:bus_stop" } }, "geometry": { "type": "Point", "coordinates": [ -86.211951219057312, 12.127812631625053 ] } },
{ "type": "Feature", "properties": { "name": "Mercado Iván Montenegro Sur", "attributes": { "official_status": "IRTRAMMA:bus_stop" } }, "geometry": { "type": "Point", "coordinates": [ -86.215896619785156, 12.128371823074696 ] } },
{ "type": "Feature", "properties": { "name": "El Contil", "attributes": { "official_status": "IRTRAMMA:bus_stop" } }, "geometry": { "type": "Point", "coordinates": [ -86.217149679774977, 12.131485515221847 ] } },
{ "type": "Feature", "properties": { "name": "Colegio Miguel Larreynaga", "attributes": { "official_status": "IRTRAMMA:bus_stop" } }, "geometry": { "type": "Point", "coordinates": [ -86.21696768109841, 12.134993063029542 ] } },
{ "type": "Feature", "properties": { "name": "UPOLI Norte", "attributes": { "official_status": "IRTRAMMA:bus_stop" } }, "geometry": { "type": "Point", "coordinates": [ -86.219603877131192, 12.138326674893429 ] } },
{ "type": "Feature", "properties": { "name": "RUPAP", "attributes": { "official_status": "IRTRAMMA:bus_stop" } }, "geometry": { "type": "Point", "coordinates": [ -86.224071378702178, 12.138350474965154 ] } },
{ "type": "Feature", "properties": { "name": "Multicentro Sur", "attributes": { "official_status": "IRTRAMMA:bus_stop" } }, "geometry": { "type": "Point", "coordinates": [ -86.228692671849799, 12.138498105620888 ] } },
{ "type": "Feature", "properties": { "name": "Las Sopas", "attributes": { "official_status": "IRTRAMMA:bus_stop" } }, "geometry": { "type": "Point", "coordinates": [ -86.230782422695242, 12.139065003065687 ] } },
{ "type": "Feature", "properties": { "name": "Bello Horizonte Sur", "attributes": { "official_status": "IRTRAMMA:bus_stop" } }, "geometry": { "type": "Point", "coordinates": [ -86.232175350374789, 12.138998872411191 ] } },
{ "type": "Feature", "properties": { "name": "Boulevard Bello Horizonte", "attributes": { "official_status": "IRTRAMMA:bus_stop" } }, "geometry": { "type": "Point", "coordinates": [ -86.233223684311383, 12.140299263290713 ] } },
{ "type": "Feature", "properties": { "name": "Rotonda Bello Horizonte Sur", "attributes": { "official_status": "IRTRAMMA:bus_stop" } }, "geometry": { "type": "Point", "coordinates": [ -86.233750276730916, 12.144998603614026 ] } },
{ "type": "Feature", "properties": { "name": "Rotonda Bello Horizonte Oeste", "attributes": { "official_status": "IRTRAMMA:bus_stop" } }, "geometry": { "type": "Point", "coordinates": [ -86.234632512171459, 12.146033922741108 ] } },
{ "type": "Feature", "properties": { "name": "EL Colonial", "attributes": { "official_status": "IRTRAMMA:bus_stop" } }, "geometry": { "type": "Point", "coordinates": [ -86.237888994907919, 12.146472586302357 ] } },
{ "type": "Feature", "properties": { "name": "Sellos de Hule", "attributes": { "official_status": "IRTRAMMA:bus_stop" } }, "geometry": { "type": "Point", "coordinates": [ -86.242625182580369, 12.146269194038313 ] } },
{ "type": "Feature", "properties": { "name": "Mataburros Pancasán", "attributes": { "official_status": "IRTRAMMA:bus_stop" } }, "geometry": { "type": "Point", "coordinates": [ -86.244994219647651, 12.146366499165019 ] } },
{ "type": "Feature", "properties": { "name": "Uniformes Nicky", "attributes": { "official_status": "IRTRAMMA:bus_stop" } }, "geometry": { "type": "Point", "coordinates": [ -86.249660248896433, 12.145622307246619 ] } },
{ "type": "Feature", "properties": { "name": "Profamilia", "attributes": { "official_status": "IRTRAMMA:bus_stop" } }, "geometry": { "type": "Point", "coordinates": [ -86.25153197862241, 12.14513700938998 ] } },
{ "type": "Feature", "properties": { "name": "Semáforos de Ciudad Jardines", "attributes": { "official_status": "none" } }, "geometry": { "type": "Point", "coordinates": [ -86.253635204197138, 12.145380185353805 ] } },
{ "type": "Feature", "properties": { "name": "Boutique Inter Fashion", "attributes": { "official_status": "IRTRAMMA:bus_stop" } }, "geometry": { "type": "Point", "coordinates": [ -86.256144108954132, 12.144383065887364 ] } },
{ "type": "Feature", "properties": { "name": "Billares Millenium", "attributes": { "official_status": "IRTRAMMA:bus_stop" } }, "geometry": { "type": "Point", "coordinates": [ -86.259903648249733, 12.144305168516189 ] } },
{ "type": "Feature", "properties": { "name": "Disco Bar Santo Domingo", "attributes": { "official_status": "IRTRAMMA:bus_stop" } }, "geometry": { "type": "Point", "coordinates": [ -86.259644124964126, 12.140405704135159 ] } },
{ "type": "Feature", "properties": { "name": "Colegio Cristo Rey", "attributes": { "official_status": "IRTRAMMA:bus_stop" } }, "geometry": { "type": "Point", "coordinates": [ -86.258720836515124, 12.136896822402601 ] } },
{ "type": "Feature", "properties": { "name": "Rotonda Cristo Rey", "attributes": { "official_status": "IRTRAMMA:bus_stop" } }, "geometry": { "type": "Point", "coordinates": [ -86.258043686453945, 12.134447410432323 ] } },
{ "type": "Feature", "properties": { "name": "Plaza El Sol", "attributes": { "official_status": "IRTRAMMA:bus_stop" } }, "geometry": { "type": "Point", "coordinates": [ -86.261493576471068, 12.131039273982861 ] } },
{ "type": "Feature", "properties": { "name": "Catedral de Managua", "attributes": { "official_status": "IRTRAMMA:bus_stop" } }, "geometry": { "type": "Point", "coordinates": [ -86.265120883756836, 12.129621678033317 ] } },
{ "type": "Feature", "properties": { "name": "UCA", "attributes": { "official_status": "none" } }, "geometry": { "type": "Point", "coordinates": [ -86.271601779374095, 12.126810264622815 ] } },
{ "type": "Feature", "properties": { "name": "Barrio Argentina", "attributes": { "official_status": "IRTRAMMA:bus_stop" } }, "geometry": { "type": "Point", "coordinates": [ -86.274846134854229, 12.126679578101442 ] } },
{ "type": "Feature", "properties": { "name": "Vivero", "attributes": { "official_status": "IRTRAMMA:bus_stop" } }, "geometry": { "type": "Point", "coordinates": [ -86.274780018849327, 12.130850185509628 ] } },
{ "type": "Feature", "properties": { "name": "Mabale", "attributes": { "official_status": "IRTRAMMA:bus_stop" } }, "geometry": { "type": "Point", "coordinates": [ -86.276801318070113, 12.136117211003224 ] } },
{ "type": "Feature", "properties": { "name": "Parque Las Madres", "attributes": { "official_status": "IRTRAMMA:bus_stop" } }, "geometry": { "type": "Point", "coordinates": [ -86.281253188955162, 12.136318064130062 ] } },
{ "type": "Feature", "properties": { "name": "Canal 2", "attributes": { "official_status": "IRTRAMMA:bus_stop" } }, "geometry": { "type": "Point", "coordinates": [ -86.282786882639741, 12.140709920967609 ] } },
{ "type": "Feature", "properties": { "name": "Panadería Norma", "attributes": { "official_status": "IRTRAMMA:bus_stop" } }, "geometry": { "type": "Point", "coordinates": [ -86.282432497260146, 12.144308330078493 ] } },
{ "type": "Feature", "properties": { "name": "Estadio Cranshaw", "attributes": { "official_status": "IRTRAMMA:bus_stop" } }, "geometry": { "type": "Point", "coordinates": [ -86.283552516756401, 12.147228807212972 ] } },
{ "type": "Feature", "properties": { "name": "Taller Automotriz", "attributes": { "official_status": "IRTRAMMA:bus_stop" } }, "geometry": { "type": "Point", "coordinates": [ -86.288307748712882, 12.149589755293226 ] } },
{ "type": "Feature", "properties": { "name": "Las Vegas", "attributes": { "official_status": "IRTRAMMA:bus_stop" } }, "geometry": { "type": "Point", "coordinates": [ -86.292363103231494, 12.149815451137663 ] } },
{ "type": "Feature", "properties": { "name": "Pulpería Cinthia", "attributes": { "official_status": "IRTRAMMA:bus_stop" } }, "geometry": { "type": "Point", "coordinates": [ -86.295108085245204, 12.150084617332226 ] } },
{ "type": "Feature", "properties": { "name": "Avenida de las Milicias", "attributes": { "official_status": "IRTRAMMA:bus_stop" } }, "geometry": { "type": "Point", "coordinates": [ -86.297203675139983, 12.151226704470441 ] } },
{ "type": "Feature", "properties": { "name": "Pulpería Doña Tere", "attributes": { "official_status": "IRTRAMMA:bus_stop" } }, "geometry": { "type": "Point", "coordinates": [ -86.296919088857976, 12.157435691123608 ] } },
{ "type": "Feature", "properties": { "name": "Cuadro Gadala María", "attributes": { "official_status": "IRTRAMMA:bus_stop" } }, "geometry": { "type": "Point", "coordinates": [ -86.295634138675567, 12.157796969366817 ] } },
{ "type": "Feature", "properties": { "name": "Parque Acahualinca", "attributes": { "official_status": "none" } }, "geometry": { "type": "Point", "coordinates": [ -86.293798251729413, 12.160060962661618 ] } },
{ "type": "Feature", "properties": { "name": "Huellas de Acahualinca", "attributes": { "official_status": "IRTRAMMA:bus_stop" } }, "geometry": { "type": "Point", "coordinates": [ -86.293625775194869, 12.161321206735407 ] } },
{ "type": "Feature", "properties": { "name": "Pulpería Karla", "attributes": { "official_status": "IRTRAMMA:bus_stop" } }, "geometry": { "type": "Point", "coordinates": [ -86.293427517011665, 12.163315578415112 ] } }
]
}
