{
"type": "FeatureCollection",
                                                                                
"features": [
{ "type": "Feature", "properties": { "name": null }, "geometry": { "type": "LineString", "coordinates": [ [ -86.310621181718176, 12.148648856236036 ], [ -86.310888520346737, 12.151201676085112 ], [ -86.304899811673621, 12.152681771709684 ], [ -86.304695534778006, 12.152607828596908 ], [ -86.304593665824797, 12.152528528537431 ], [ -86.304517398857172, 12.152403650655009 ], [ -86.304527909146003, 12.151904665451214 ], [ -86.304911220277731, 12.143926746802544 ], [ -86.305036445428343, 12.143616210503948 ], [ -86.305218264441834, 12.143343876195139 ], [ -86.307203990377388, 12.140694552053981 ], [ -86.307405302832564, 12.140381201667319 ], [ -86.307598799944742, 12.139905818215949 ], [ -86.307729235324018, 12.139444573383818 ], [ -86.307763191641754, 12.138582854889561 ], [ -86.307868743687635, 12.138016659004697 ], [ -86.310412323414624, 12.131084504136563 ], [ -86.310596927205495, 12.130596457198946 ], [ -86.31068810620684, 12.130494052419463 ], [ -86.312063516738377, 12.126271270136503 ], [ -86.313127122034757, 12.123344415325494 ], [ -86.31204303514987, 12.122931096046004 ], [ -86.311838668422737, 12.122865664014657 ], [ -86.310876842248035, 12.122712755003628 ], [ -86.310221611079797, 12.122701073840663 ], [ -86.309566020585436, 12.12275245338826 ], [ -86.308882851811887, 12.122891046375022 ], [ -86.305851846211738, 12.123840380049888 ], [ -86.303728678037714, 12.124417672342169 ], [ -86.300952793978254, 12.125011562789345 ], [ -86.297939934346843, 12.125490573730424 ], [ -86.297647622553384, 12.12541890658165 ], [ -86.296435346077473, 12.125586832517591 ], [ -86.296378033562334, 12.125680192968655 ], [ -86.295198994751928, 12.125781282187862 ], [ -86.29319700930975, 12.125897214173126 ], [ -86.290819078921146, 12.125939195591728 ], [ -86.288748552022795, 12.12592171797265 ], [ -86.286098791429239, 12.125771533359535 ], [ -86.284128067358921, 12.125535453515992 ], [ -86.283865130475263, 12.12547177867121 ], [ -86.283699121810756, 12.125364365760669 ], [ -86.283607044494133, 12.125235522907397 ], [ -86.28345064780315, 12.12515779559361 ], [ -86.282985589980584, 12.125139966613364 ], [ -86.282836918801067, 12.12521778175981 ], [ -86.282434832879886, 12.125291117684023 ], [ -86.281911294732296, 12.125219362654196 ], [ -86.28175974894387, 12.12523517159755 ], [ -86.27883016313929, 12.124741229502213 ], [ -86.277556711392535, 12.12439220229933 ], [ -86.277085006036842, 12.124297260497533 ], [ -86.276365814820366, 12.124258528448411 ], [ -86.275714536239377, 12.124348288426656 ], [ -86.27507152215901, 12.124573654344548 ], [ -86.274728006394355, 12.124752822748221 ], [ -86.273912605610974, 12.12522410533729 ], [ -86.269952023354833, 12.127687478674151 ], [ -86.269437468360081, 12.127987494351402 ], [ -86.268954713726387, 12.12821953200609 ], [ -86.267942941221889, 12.128614048251418 ], [ -86.267503395553376, 12.128749388618719 ], [ -86.267147303374742, 12.128811569634012 ], [ -86.26690799218305, 12.128850476674339 ], [ -86.266646492603854, 12.128803753094761 ], [ -86.266398467753902, 12.128675087556026 ], [ -86.266128524011023, 12.128709515474169 ], [ -86.265980751146785, 12.128813589638501 ], [ -86.26580477118263, 12.129131432763135 ], [ -86.265706046332909, 12.129223825885502 ], [ -86.265535096934329, 12.129298917230376 ], [ -86.262853086822062, 12.130175069183604 ], [ -86.262498701442482, 12.130325866096817 ], [ -86.260821277312445, 12.131261472528248 ], [ -86.26024842165576, 12.131505275936469 ], [ -86.258721644998872, 12.132049090227992 ], [ -86.258332943975418, 12.132229658810688 ], [ -86.258041350834205, 12.132336015053854 ], [ -86.257808687175626, 12.132342074987156 ], [ -86.257673311062291, 12.132294561593348 ], [ -86.257406241928336, 12.132354458328697 ], [ -86.257254875802957, 12.132482419490914 ], [ -86.257102252036177, 12.132753711003639 ], [ -86.256898783624337, 12.132934015634177 ], [ -86.256265291685963, 12.133315526832204 ], [ -86.256015380373938, 12.133614745752912 ], [ -86.254732047159038, 12.134962500190287 ], [ -86.254300496496555, 12.135313621333545 ], [ -86.253258271103903, 12.135970896387013 ], [ -86.253021385363482, 12.136071893879786 ], [ -86.251855012798586, 12.136739354608631 ], [ -86.251139235180204, 12.137207103065016 ], [ -86.249211809906598, 12.138369269116232 ], [ -86.248169404850913, 12.138811809514792 ], [ -86.244504368323234, 12.139999876232006 ], [ -86.242914440101856, 12.140484919983534 ], [ -86.242650515071375, 12.140637555332273 ], [ -86.242453424698056, 12.140873182686773 ], [ -86.242297028007087, 12.141007375138404 ], [ -86.242150243289672, 12.141054799156198 ], [ -86.241185362842998, 12.140983048370449 ], [ -86.240791182096331, 12.140468585010085 ], [ -86.239911012780937, 12.139441060472661 ], [ -86.238816774933355, 12.138255889427681 ], [ -86.238591028302437, 12.138092713927515 ], [ -86.238050511995993, 12.137975909014033 ], [ -86.2384738879894, 12.134194124668699 ], [ -86.23720429899835, 12.133504350082212 ], [ -86.236743193763019, 12.133219358660416 ], [ -86.235383503748977, 12.13227752351662 ], [ -86.234760701762497, 12.131888545685012 ], [ -86.234416197851047, 12.131705956888661 ], [ -86.234197637742412, 12.131652471257967 ], [ -86.233137086717974, 12.131098468396063 ], [ -86.232001526367327, 12.130665224708878 ], [ -86.23189624381601, 12.130596457198946 ], [ -86.231394804224436, 12.13043670221275 ], [ -86.231347463008944, 12.130300747921503 ], [ -86.231273441829543, 12.130249457654072 ], [ -86.231096922876219, 12.130259908925115 ], [ -86.231018320288868, 12.130339479092932 ], [ -86.230477264993226, 12.130200626499883 ], [ -86.230306225763115, 12.130208969953131 ], [ -86.229960913367918, 12.130140817106408 ], [ -86.228686922631965, 12.129824292574442 ], [ -86.226503208007813, 12.129532710264606 ], [ -86.225105788751819, 12.129394120729623 ], [ -86.224995385803425, 12.129230588498713 ], [ -86.224760386525091, 12.129192032818498 ], [ -86.224678370339646, 12.129325704196242 ], [ -86.223407972864834, 12.129127919716028 ], [ -86.221553580623834, 12.128955780350935 ], [ -86.220122384713164, 12.128862596699284 ], [ -86.216396801735357, 12.128251852147875 ], [ -86.213278479889581, 12.127927157501976 ], [ -86.211402168755654, 12.127683526474742 ], [ -86.208150177595613, 12.127152525995179 ], [ -86.208425601061705, 12.125260729387337 ], [ -86.208554419473472, 12.12466490728675 ], [ -86.209459831448314, 12.122963592485146 ], [ -86.209692584938438, 12.122430299069821 ], [ -86.209786997874801, 12.122052724579241 ], [ -86.209658269294593, 12.121465326868087 ], [ -86.208769835478591, 12.119887128256842 ], [ -86.208619726994613, 12.119702950316027 ], [ -86.208465935417962, 12.119601156158756 ], [ -86.20395118246303, 12.11886540896824 ], [ -86.201753364288905, 12.117405589896551 ], [ -86.203578740946256, 12.112946860765312 ], [ -86.203340417901387, 12.112836720034874 ], [ -86.20298163077689, 12.112726754922146 ], [ -86.202659584747536, 12.112678096223625 ], [ -86.201261267176278, 12.112549774234258 ], [ -86.201157601592499, 12.112508229867201 ], [ -86.196911804233622, 12.112132573637277 ] ] } },
{ "type": "Feature", "properties": { "name": "Lenín Fonseca" }, "geometry": { "type": "Point", "coordinates": [ -86.310560635268033, 12.148644816527865 ] } },
{ "type": "Feature", "properties": { "name": "INIFOM" }, "geometry": { "type": "Point", "coordinates": [ -86.310686309576283, 12.151172256751979 ] } },
{ "type": "Feature", "properties": { "name": "Centro Comercial Linda Vista" }, "geometry": { "type": "Point", "coordinates": [ -86.306379516609624, 12.152205005126328 ] } },
{ "type": "Feature", "properties": { "name": "Asados El Toro" }, "geometry": { "type": "Point", "coordinates": [ -86.304624118712937, 12.151641911866777 ] } },
{ "type": "Feature", "properties": { "name": "Universidad Paulo Freire" }, "geometry": { "type": "Point", "coordinates": [ -86.304901518472661, 12.146302565836686 ] } },
{ "type": "Feature", "properties": { "name": "Ferretería 35 Avenida" }, "geometry": { "type": "Point", "coordinates": [ -86.305019377437944, 12.143829528605462 ] } },
{ "type": "Feature", "properties": { "name": "ENACAL" }, "geometry": { "type": "Point", "coordinates": [ -86.307544990859256, 12.140262114372124 ] } },
{ "type": "Feature", "properties": { "name": "Asososca" }, "geometry": { "type": "Point", "coordinates": [ -86.310153339118216, 12.132123390350284 ] } },
{ "type": "Feature", "properties": { "name": "Las Piedrecitas" }, "geometry": { "type": "Point", "coordinates": [ -86.311377563187406, 12.1286953754369 ] } },
{ "type": "Feature", "properties": { "name": "7 Sur" }, "geometry": { "type": "Point", "coordinates": [ -86.31205219796577, 12.122833694533098 ] } },
{ "type": "Feature", "properties": { "name": "Centro Comercial Nejapa" }, "geometry": { "type": "Point", "coordinates": [ -86.304284645367062, 12.124176409459478 ] } },
{ "type": "Feature", "properties": { "name": "Hospital Bertha Calderón" }, "geometry": { "type": "Point", "coordinates": [ -86.298903916478238, 12.125261871144206 ] } },
{ "type": "Feature", "properties": { "name": "El Zumen Norte" }, "geometry": { "type": "Point", "coordinates": [ -86.296934809375443, 12.125491452004189 ] } },
{ "type": "Feature", "properties": { "name": "Excel Automotriz" }, "geometry": { "type": "Point", "coordinates": [ -86.289585871699117, 12.125866474636489 ] } },
{ "type": "Feature", "properties": { "name": "Rotonda El Periodista" }, "geometry": { "type": "Point", "coordinates": [ -86.284595011643603, 12.125537297890569 ] } },
{ "type": "Feature", "properties": { "name": "ENEL Central" }, "geometry": { "type": "Point", "coordinates": [ -86.276849288106277, 12.124158931724882 ] } },
{ "type": "Feature", "properties": { "name": "UCA" }, "geometry": { "type": "Point", "coordinates": [ -86.272506742191325, 12.125988203180814 ] } },
{ "type": "Feature", "properties": { "name": "Metrocentro Norte" }, "geometry": { "type": "Point", "coordinates": [ -86.264808180206415, 12.129406679860281 ] } },
{ "type": "Feature", "properties": { "name": "Plaza El Sol" }, "geometry": { "type": "Point", "coordinates": [ -86.26140850601368, 12.130827350849808 ] } },
{ "type": "Feature", "properties": { "name": "Diesel Motors" }, "geometry": { "type": "Point", "coordinates": [ -86.255223245956387, 12.13428985336634 ] } },
{ "type": "Feature", "properties": { "name": "Iglesia de Dios" }, "geometry": { "type": "Point", "coordinates": [ -86.245570848228525, 12.139536172525798 ] } },
{ "type": "Feature", "properties": { "name": "Plaza El Edén" }, "geometry": { "type": "Point", "coordinates": [ -86.242029779210057, 12.140950817595051 ] } },
{ "type": "Feature", "properties": { "name": "Comedor Jenny" }, "geometry": { "type": "Point", "coordinates": [ -86.238354142562031, 12.136089546481113 ] } },
{ "type": "Feature", "properties": { "name": "Hospital Japonés" }, "geometry": { "type": "Point", "coordinates": [ -86.238308148819485, 12.134012415697601 ] } },
{ "type": "Feature", "properties": { "name": "Pulpería Lillian" }, "geometry": { "type": "Point", "coordinates": [ -86.235105924326191, 12.132015277517732 ] } },
{ "type": "Feature", "properties": { "name": "Sucursal Rubenia - DISSUR" }, "geometry": { "type": "Point", "coordinates": [ -86.233164036176504, 12.131043665260259 ] } },
{ "type": "Feature", "properties": { "name": "Foto Estudio García" }, "geometry": { "type": "Point", "coordinates": [ -86.229606168662215, 12.129966394921906 ] } },
{ "type": "Feature", "properties": { "name": "Conchita Palacios" }, "geometry": { "type": "Point", "coordinates": [ -86.224829107644325, 12.129133101460498 ] } },
{ "type": "Feature", "properties": { "name": "Primero de Mayo" }, "geometry": { "type": "Point", "coordinates": [ -86.221924225510065, 12.128875946291352 ] } },
{ "type": "Feature", "properties": { "name": "Frente a Telerepuestos Electrónicos" }, "geometry": { "type": "Point", "coordinates": [ -86.219604326288817, 12.128669115365678 ] } },
{ "type": "Feature", "properties": { "name": "Mercado Iván Montenegro Sureste" }, "geometry": { "type": "Point", "coordinates": [ -86.214177244331353, 12.127880697240355 ] } },
{ "type": "Feature", "properties": { "name": "Colegio Inmaculada Concepción" }, "geometry": { "type": "Point", "coordinates": [ -86.209618833253614, 12.127306310728468 ] } },
{ "type": "Feature", "properties": { "name": "Clínica Dental" }, "geometry": { "type": "Point", "coordinates": [ -86.208248812613789, 12.126735963019732 ] } },
{ "type": "Feature", "properties": { "name": "Madre de Dios Este" }, "geometry": { "type": "Point", "coordinates": [ -86.209432163337581, 12.123114129992102 ] } },
{ "type": "Feature", "properties": { "name": "La Chelita" }, "geometry": { "type": "Point", "coordinates": [ -86.209144343120542, 12.120512998554338 ] } },
{ "type": "Feature", "properties": { "name": "Miscelánea La Unión" }, "geometry": { "type": "Point", "coordinates": [ -86.207900625609668, 12.119435685677008 ] } },
{ "type": "Feature", "properties": { "name": "La Sabana" }, "geometry": { "type": "Point", "coordinates": [ -86.205772426870055, 12.119095610139691 ] } },
{ "type": "Feature", "properties": { "name": "Sorbetería" }, "geometry": { "type": "Point", "coordinates": [ -86.202756602798232, 12.118008103278319 ] } }
]
}
