{
"type": "FeatureCollection",
"features": [
{ "type": "Feature", "properties": { "name": "Ruta 103:Hospital Lenín Fonseca -> Laureles Sur", "attributes": { "operator": "Cooperativa Parrales Vallejos", "to": "Laureles Sur", "ref": "103", "network": "IRTRAMMA", "from": "Hospital Lenín Fonseca" } }, "geometry": { "type": "LineString", "coordinates": [ [ -86.310621181718176, 12.148648856236036 ], [ -86.310888520346737, 12.151201676085112 ], [ -86.304899811673621, 12.152681771709684 ], [ -86.304695534778006, 12.152607828596908 ], [ -86.304593665824797, 12.152528528537431 ], [ -86.304517398857172, 12.152403650655009 ], [ -86.304911220277731, 12.143926746802544 ], [ -86.305036445428343, 12.143616210503948 ], [ -86.305218264441834, 12.143343876195139 ], [ -86.307203990377388, 12.140694552053981 ], [ -86.307405302832564, 12.140381201667319 ], [ -86.307609489896635, 12.13992145064296 ], [ -86.307729235324018, 12.139444573383818 ], [ -86.307763191641754, 12.138591110257309 ], [ -86.307868743687635, 12.138016659004697 ], [ -86.310412323414624, 12.131084504136563 ], [ -86.310694933402999, 12.130436614386999 ], [ -86.311197091646818, 12.128965353410386 ], [ -86.311197720467533, 12.128863650614473 ], [ -86.311688649770289, 12.127546780339218 ], [ -86.313113826968561, 12.123373398591363 ], [ -86.312811903201563, 12.123221368152636 ], [ -86.311836332803011, 12.122870318911378 ], [ -86.311239222633645, 12.122747974146044 ], [ -86.310603035749438, 12.122699756416226 ], [ -86.309566020585436, 12.12275245338826 ], [ -86.308882851811887, 12.122891046375022 ], [ -86.305851846211738, 12.123840380049888 ], [ -86.303728678037714, 12.124417672342169 ], [ -86.300952793978254, 12.125011562789345 ], [ -86.297891874479149, 12.125489695456661 ], [ -86.297647622553384, 12.12541890658165 ], [ -86.296435346077473, 12.125586832517591 ], [ -86.296378033562334, 12.125680192968655 ], [ -86.293828075796853, 12.125871129480844 ], [ -86.291920772785602, 12.125932432895036 ], [ -86.288740646848296, 12.125913198730782 ], [ -86.28609546766269, 12.125741672081343 ], [ -86.284128067358921, 12.125535453515992 ], [ -86.283814016335597, 12.125448065276851 ], [ -86.283699121810756, 12.125364365760669 ], [ -86.283567338958562, 12.125205749396651 ], [ -86.283374919824723, 12.12514822239747 ], [ -86.282985589980584, 12.125141108370753 ], [ -86.282836918801067, 12.12521778175981 ], [ -86.28247364010015, 12.125288395033316 ], [ -86.281911294732296, 12.125219362654196 ], [ -86.28175974894387, 12.12523517159755 ], [ -86.281149792865946, 12.125146992812613 ], [ -86.278827108867333, 12.124756511508215 ], [ -86.277556711392535, 12.12439220229933 ], [ -86.277085006036842, 12.124297260497533 ], [ -86.276365814820366, 12.124258528448411 ], [ -86.27609281680553, 12.124286106370583 ], [ -86.275331584433772, 12.124442878899396 ], [ -86.274745074384768, 12.124671406532654 ], [ -86.274305349053193, 12.124924876999049 ], [ -86.273547979437154, 12.125464488998361 ], [ -86.269952023354833, 12.127687478674151 ], [ -86.269437468360081, 12.127987494351402 ], [ -86.268994329430413, 12.128196170162042 ], [ -86.267942941221889, 12.128614048251418 ], [ -86.267503395553376, 12.128749388618719 ], [ -86.267025401990679, 12.128837566212384 ], [ -86.26690799218305, 12.128850476674339 ], [ -86.266669399643604, 12.12880480701018 ], [ -86.266555583097087, 12.128720054631902 ], [ -86.266420476478359, 12.12867438494539 ], [ -86.266194909510517, 12.128691686731395 ], [ -86.266006083637791, 12.128813765291071 ], [ -86.265895590857852, 12.129039127434954 ], [ -86.265631306501263, 12.129265982432596 ], [ -86.262529064499077, 12.130339830396048 ], [ -86.260627690368722, 12.131398480234663 ], [ -86.258134595960684, 12.132310721417708 ], [ -86.257891242350226, 12.132348047095205 ], [ -86.257573148908108, 12.132301411953799 ], [ -86.257386838318212, 12.132369476422982 ], [ -86.257244545177187, 12.132506571384924 ], [ -86.25720133621202, 12.132614332718056 ], [ -86.256999933925343, 12.132855412315354 ], [ -86.256269693430866, 12.133324045837515 ], [ -86.254732047159038, 12.134962500190287 ], [ -86.254300496496555, 12.135313621333545 ], [ -86.253258271103903, 12.135970896387013 ], [ -86.253021385363482, 12.136071893879786 ], [ -86.251855012798586, 12.136739354608631 ], [ -86.251139235180204, 12.137207103065016 ], [ -86.249211809906598, 12.138369269116232 ], [ -86.248169404850913, 12.138811809514792 ], [ -86.244504368323234, 12.139999876232006 ], [ -86.242914440101856, 12.140484919983534 ], [ -86.242650515071375, 12.140637555332273 ], [ -86.242453424698056, 12.140873182686773 ], [ -86.242297028007087, 12.141007375138404 ], [ -86.242021784204027, 12.141041713641018 ], [ -86.241185362842998, 12.140983048370449 ], [ -86.240791182096331, 12.140468585010085 ], [ -86.238945503513563, 12.13835460265266 ], [ -86.238591028302437, 12.138092713927515 ], [ -86.238440470660834, 12.138039229578762 ], [ -86.238050511995993, 12.137975909014033 ], [ -86.2384738879894, 12.134194124668699 ], [ -86.23720429899835, 12.133504350082212 ], [ -86.236743193763019, 12.133219358660416 ], [ -86.235383503748977, 12.13227752351662 ], [ -86.234760701762497, 12.131888545685012 ], [ -86.234416197851047, 12.131705956888661 ], [ -86.234220544782147, 12.131660902491101 ], [ -86.233137086717974, 12.131098468396063 ], [ -86.232001526367327, 12.130665224708878 ], [ -86.23189624381601, 12.130596457198946 ], [ -86.231397948327938, 12.1304367900385 ], [ -86.23136596830382, 12.130324373058485 ], [ -86.231273621492605, 12.130248930699226 ], [ -86.231096833044674, 12.130259733273499 ], [ -86.231011043935055, 12.130353794694555 ], [ -86.229953547182589, 12.130111307620973 ], [ -86.229051548805799, 12.129863814248525 ], [ -86.228317265892557, 12.129781872637754 ], [ -86.227365231354455, 12.129621678033317 ], [ -86.227270099765875, 12.129640384973992 ], [ -86.226503208007813, 12.129532710264606 ], [ -86.225105788751819, 12.129394120729623 ], [ -86.224995385803425, 12.129230588498713 ], [ -86.224760386525091, 12.129192032818498 ], [ -86.224678370339646, 12.129325704196242 ], [ -86.223407972864834, 12.129127919716028 ], [ -86.220122384713164, 12.128844153182847 ], [ -86.219360793015298, 12.128739112941075 ], [ -86.21926763772035, 12.128683167578025 ], [ -86.217592369546992, 12.128408885824475 ], [ -86.217517000894645, 12.128424958057977 ], [ -86.216396801735357, 12.128251852147875 ], [ -86.213278479889581, 12.127927157501976 ], [ -86.211402168755654, 12.127683526474742 ], [ -86.208401616043631, 12.127190994143525 ], [ -86.208282679100023, 12.127095087242816 ], [ -86.208181798293623, 12.126918818700727 ], [ -86.208501688366283, 12.124908892382159 ], [ -86.208589094443425, 12.124607292343235 ], [ -86.209459831448314, 12.122963592485146 ], [ -86.209692584938438, 12.122430299069821 ], [ -86.209740914300724, 12.122041394701418 ], [ -86.209658269294593, 12.121465326868087 ], [ -86.208769835478591, 12.119887128256842 ], [ -86.208619726994613, 12.119702950316027 ], [ -86.208465935417962, 12.119601156158756 ], [ -86.208316725249276, 12.11955899808398 ], [ -86.20395118246303, 12.11886540896824 ], [ -86.201753364288905, 12.117405589896551 ], [ -86.203578740946256, 12.112946860765312 ], [ -86.203340417901387, 12.112836720034874 ], [ -86.20298163077689, 12.112726754922146 ], [ -86.202356044013044, 12.112641997436128 ], [ -86.201261267176278, 12.112549774234258 ], [ -86.201157601592499, 12.112508229867201 ], [ -86.196567300322172, 12.112119398870975 ], [ -86.196494716447219, 12.113029071041685 ], [ -86.196393745809274, 12.113731019293516 ], [ -86.197226304414599, 12.113804094881342 ], [ -86.197010708746419, 12.116213470125711 ], [ -86.196850000142078, 12.116771719758191 ], [ -86.196948186002643, 12.116782347217843 ] ] } },
{ "type": "Feature", "properties": { "name": "Hospital Lenín Fonseca", "attributes": { "official_status": "IRTRAMMA:bus_station" } }, "geometry": { "type": "Point", "coordinates": [ -86.310560635268033, 12.148644816527865 ] } },
{ "type": "Feature", "properties": { "name": "INIFOM", "attributes": { "official_status": "IRTRAMMA:bus_stop" } }, "geometry": { "type": "Point", "coordinates": [ -86.310686309576283, 12.151172256751979 ] } },
{ "type": "Feature", "properties": { "name": "Centro Comercial Linda Vista", "attributes": { "official_status": "IRTRAMMA:bus_stop" } }, "geometry": { "type": "Point", "coordinates": [ -86.306379516609624, 12.152205005126328 ] } },
{ "type": "Feature", "properties": { "name": "Linda Vista Sur", "attributes": { "official_status": "IRTRAMMA:bus_stop" } }, "geometry": { "type": "Point", "coordinates": [ -86.304624118712937, 12.151641911866777 ] } },
{ "type": "Feature", "properties": { "name": "Universidad Paulo Freire", "attributes": { "official_status": "IRTRAMMA:bus_stop" } }, "geometry": { "type": "Point", "coordinates": [ -86.304901518472661, 12.146302565836686 ] } },
{ "type": "Feature", "properties": { "name": "Ferretería 35 Avenida", "attributes": { "official_status": "IRTRAMMA:bus_stop" } }, "geometry": { "type": "Point", "coordinates": [ -86.305019377437944, 12.143829528605462 ] } },
{ "type": "Feature", "properties": { "name": "ENACAL", "attributes": { "official_status": "IRTRAMMA:bus_stop" } }, "geometry": { "type": "Point", "coordinates": [ -86.307544990859256, 12.140262114372124 ] } },
{ "type": "Feature", "properties": { "name": "Asososca", "attributes": { "official_status": "IRTRAMMA:bus_stop" } }, "geometry": { "type": "Point", "coordinates": [ -86.310153339118216, 12.132123390350284 ] } },
{ "type": "Feature", "properties": { "name": "Hospital Vélez Paiz", "attributes": { "official_status": "IRTRAMMA:bus_stop" } }, "geometry": { "type": "Point", "coordinates": [ -86.311377563187406, 12.1286953754369 ] } },
{ "type": "Feature", "properties": { "name": "7 Sur", "attributes": { "official_status": "IRTRAMMA:bus_stop" } }, "geometry": { "type": "Point", "coordinates": [ -86.31205219796577, 12.122833694533098 ] } },
{ "type": "Feature", "properties": { "name": "Banco Central", "attributes": { "official_status": "none" } }, "geometry": { "type": "Point", "coordinates": [ -86.310328780093201, 12.122638013117417 ] } },
{ "type": "Feature", "properties": { "name": "Centro Comercial Nejapa", "attributes": { "official_status": "IRTRAMMA:bus_stop" } }, "geometry": { "type": "Point", "coordinates": [ -86.304284645367062, 12.124176409459478 ] } },
{ "type": "Feature", "properties": { "name": "Hospital Bertha Calderón", "attributes": { "official_status": "IRTRAMMA:bus_stop" } }, "geometry": { "type": "Point", "coordinates": [ -86.298903916478238, 12.125261871144206 ] } },
{ "type": "Feature", "properties": { "name": "El Zumen Norte", "attributes": { "official_status": "IRTRAMMA:bus_stop" } }, "geometry": { "type": "Point", "coordinates": [ -86.296934809375443, 12.125491452004189 ] } },
{ "type": "Feature", "properties": { "name": "Excel Automotriz", "attributes": { "official_status": "IRTRAMMA:bus_stop" } }, "geometry": { "type": "Point", "coordinates": [ -86.289585871699117, 12.125866474636489 ] } },
{ "type": "Feature", "properties": { "name": "Rotonda El Periodista", "attributes": { "official_status": "IRTRAMMA:bus_stop" } }, "geometry": { "type": "Point", "coordinates": [ -86.284595011643603, 12.125537297890569 ] } },
{ "type": "Feature", "properties": { "name": "ENEL Central", "attributes": { "official_status": "IRTRAMMA:bus_stop" } }, "geometry": { "type": "Point", "coordinates": [ -86.276849288106277, 12.124158931724882 ] } },
{ "type": "Feature", "properties": { "name": "UCA", "attributes": { "official_status": "IRTRAMMA:bus_stop" } }, "geometry": { "type": "Point", "coordinates": [ -86.272506742191325, 12.125988203180814 ] } },
{ "type": "Feature", "properties": { "name": "Catedral de Managua", "attributes": { "official_status": "IRTRAMMA:bus_stop" } }, "geometry": { "type": "Point", "coordinates": [ -86.264808180206415, 12.129406679860281 ] } },
{ "type": "Feature", "properties": { "name": "Plaza El Sol", "attributes": { "official_status": "IRTRAMMA:bus_stop" } }, "geometry": { "type": "Point", "coordinates": [ -86.26140850601368, 12.130827350849808 ] } },
{ "type": "Feature", "properties": { "name": "Diesel Motors", "attributes": { "official_status": "IRTRAMMA:bus_stop" } }, "geometry": { "type": "Point", "coordinates": [ -86.255223245956387, 12.13428985336634 ] } },
{ "type": "Feature", "properties": { "name": "Iglesia de Dios", "attributes": { "official_status": "IRTRAMMA:bus_stop" } }, "geometry": { "type": "Point", "coordinates": [ -86.245570848228525, 12.139536172525798 ] } },
{ "type": "Feature", "properties": { "name": "Plaza El Edén", "attributes": { "official_status": "IRTRAMMA:bus_stop" } }, "geometry": { "type": "Point", "coordinates": [ -86.242029779210057, 12.140950817595051 ] } },
{ "type": "Feature", "properties": { "name": "Barrio Meneses", "attributes": { "official_status": "IRTRAMMA:bus_stop" } }, "geometry": { "type": "Point", "coordinates": [ -86.238354142562031, 12.136089546481113 ] } },
{ "type": "Feature", "properties": { "name": "Hospital Japonés", "attributes": { "official_status": "IRTRAMMA:bus_stop" } }, "geometry": { "type": "Point", "coordinates": [ -86.238308148819485, 12.134012415697601 ] } },
{ "type": "Feature", "properties": { "name": "Pulpería Lillian", "attributes": { "official_status": "IRTRAMMA:bus_stop" } }, "geometry": { "type": "Point", "coordinates": [ -86.235105924326191, 12.132015277517732 ] } },
{ "type": "Feature", "properties": { "name": "Sucursal Rubenia - DISSUR", "attributes": { "official_status": "IRTRAMMA:bus_stop" } }, "geometry": { "type": "Point", "coordinates": [ -86.233164036176504, 12.131043665260259 ] } },
{ "type": "Feature", "properties": { "name": "Pista La Sabana", "attributes": { "official_status": "IRTRAMMA:bus_stop" } }, "geometry": { "type": "Point", "coordinates": [ -86.229606168662215, 12.129966394921906 ] } },
{ "type": "Feature", "properties": { "name": "Colonia Rubenia", "attributes": { "official_status": "none" } }, "geometry": { "type": "Point", "coordinates": [ -86.227851130091636, 12.129655666699215 ] } },
{ "type": "Feature", "properties": { "name": "Conchita Palacios", "attributes": { "official_status": "IRTRAMMA:bus_stop" } }, "geometry": { "type": "Point", "coordinates": [ -86.224829107644325, 12.129133101460498 ] } },
{ "type": "Feature", "properties": { "name": "Plaza La Sabana", "attributes": { "official_status": "IRTRAMMA:bus_stop" } }, "geometry": { "type": "Point", "coordinates": [ -86.221924225510065, 12.128875946291352 ] } },
{ "type": "Feature", "properties": { "name": "Barrio Americas 1", "attributes": { "official_status": "IRTRAMMA:bus_stop" } }, "geometry": { "type": "Point", "coordinates": [ -86.219604326288817, 12.128669115365678 ] } },
{ "type": "Feature", "properties": { "name": "Mercado Iván Montenegro Sureste", "attributes": { "official_status": "IRTRAMMA:bus_stop" } }, "geometry": { "type": "Point", "coordinates": [ -86.214177244331353, 12.127880697240355 ] } },
{ "type": "Feature", "properties": { "name": "Colegio Inmaculada Concepción", "attributes": { "official_status": "IRTRAMMA:bus_stop" } }, "geometry": { "type": "Point", "coordinates": [ -86.209618833253614, 12.127306310728468 ] } },
{ "type": "Feature", "properties": { "name": "Clínica Dental", "attributes": { "official_status": "none" } }, "geometry": { "type": "Point", "coordinates": [ -86.208248812613789, 12.126735963019732 ] } },
{ "type": "Feature", "properties": { "name": "Madre de Dios Este", "attributes": { "official_status": "IRTRAMMA:bus_stop" } }, "geometry": { "type": "Point", "coordinates": [ -86.209432163337581, 12.123114129992102 ] } },
{ "type": "Feature", "properties": { "name": "La Chelita", "attributes": { "official_status": "IRTRAMMA:bus_stop" } }, "geometry": { "type": "Point", "coordinates": [ -86.209168417970162, 12.120497277160128 ] } },
{ "type": "Feature", "properties": { "name": "Miscelánea La Unión", "attributes": { "official_status": "IRTRAMMA:bus_stop" } }, "geometry": { "type": "Point", "coordinates": [ -86.207900625609668, 12.119435685677008 ] } },
{ "type": "Feature", "properties": { "name": "La Sabana", "attributes": { "official_status": "IRTRAMMA:bus_stop" } }, "geometry": { "type": "Point", "coordinates": [ -86.205772426870055, 12.119095610139691 ] } },
{ "type": "Feature", "properties": { "name": "Ixchen", "attributes": { "official_status": "IRTRAMMA:bus_stop" } }, "geometry": { "type": "Point", "coordinates": [ -86.202756602798232, 12.118008103278319 ] } },
{ "type": "Feature", "properties": { "name": "Terminal 116", "attributes": { "official_status": "IRTRAMMA:bus_station" } }, "geometry": { "type": "Point", "coordinates": [ -86.203582783365036, 12.113080276788637 ] } },
{ "type": "Feature", "properties": { "name": "Pulpería Karolina", "attributes": { "official_status": "IRTRAMMA:bus_stop" } }, "geometry": { "type": "Point", "coordinates": [ -86.200547196356936, 12.112396420153759 ] } },
{ "type": "Feature", "properties": { "name": "Terminal Laureles Sur", "attributes": { "official_status": "IRTRAMMA:bus_station" } }, "geometry": { "type": "Point", "coordinates": [ -86.196942706279387, 12.116817479312854 ] } }
]
}
