{
"type": "FeatureCollection",
"features": [
{ "type": "Feature", "properties": { "name": "Ruta 104: Mercado Mayoreo -> Hialeah", "attributes": { "operator": "Cooperativa Omar Baca", "to": "Hialeah", "ref": "104", "network": "IRTRAMMA", "from": "Mercado Mayoreo" } }, "geometry": { "type": "LineString", "coordinates": [ [ -86.194553007960593, 12.134970580021706 ], [ -86.194632329200175, 12.133640214914685 ], [ -86.196577810610989, 12.133837205625039 ], [ -86.197038017531057, 12.13390281061308 ], [ -86.197460225714593, 12.134004511486284 ], [ -86.197822336605597, 12.134117805159431 ], [ -86.198359978303145, 12.134408855506726 ], [ -86.198462745571661, 12.134645805735774 ], [ -86.19845582854397, 12.134856584116767 ], [ -86.197810928001502, 12.135802625696616 ], [ -86.1968491018268, 12.137579562335658 ], [ -86.196042414701665, 12.139661671203234 ], [ -86.195664762956213, 12.141130062811525 ], [ -86.19528827902063, 12.143099205404798 ], [ -86.195209945927871, 12.143748118218017 ], [ -86.195184074447681, 12.144780192830099 ], [ -86.195234919092769, 12.147210452788249 ], [ -86.195189464339379, 12.14740102259093 ], [ -86.195213000199843, 12.147667029704873 ], [ -86.195292950260111, 12.147824051937228 ], [ -86.195377391896827, 12.147891058599903 ], [ -86.195629099839437, 12.148020856517107 ], [ -86.195955547613693, 12.148055281935131 ], [ -86.196018070357454, 12.148110520670569 ], [ -86.212117048058758, 12.149591160404132 ], [ -86.214879816715055, 12.149805351911366 ], [ -86.214885925258983, 12.149687673941845 ], [ -86.213737608831295, 12.146523258703214 ], [ -86.213704820323443, 12.146349725449866 ], [ -86.213638165329357, 12.144953288001695 ], [ -86.213703922008136, 12.144724602119457 ], [ -86.213859420383827, 12.144441027839852 ], [ -86.214631881696633, 12.143356698132727 ], [ -86.21506621713651, 12.142667298557836 ], [ -86.21520330004887, 12.142172422730726 ], [ -86.215755045296362, 12.13902715139162 ], [ -86.215990314069288, 12.138528316762244 ], [ -86.216983401615877, 12.137029875150947 ], [ -86.218751106431966, 12.138060921918541 ], [ -86.219198108117368, 12.138237973500356 ], [ -86.220993750538767, 12.138396406462894 ], [ -86.222905994284076, 12.138486073857239 ], [ -86.223427017148865, 12.138494504874171 ], [ -86.224273589472631, 12.138270116780859 ], [ -86.225079647777065, 12.138257118952044 ], [ -86.2269123007882, 12.138302962642722 ], [ -86.227302349284571, 12.138337916255983 ], [ -86.227697787672625, 12.138426881085113 ], [ -86.228098076963249, 12.137813611575538 ], [ -86.228812776603277, 12.136210479942353 ], [ -86.2289329711883, 12.136117123179357 ], [ -86.22899306848079, 12.136013227514725 ], [ -86.229094847602497, 12.135705755830319 ], [ -86.22906547269271, 12.135597293154909 ], [ -86.231446996342427, 12.130065989476286 ], [ -86.231752064212927, 12.129586811102817 ], [ -86.232102047847619, 12.129236648502609 ], [ -86.232436939785543, 12.129015326531642 ], [ -86.233883586719074, 12.128527714937752 ], [ -86.237484124209374, 12.12740107580548 ], [ -86.237994996111425, 12.127149715536646 ], [ -86.238345608566831, 12.126898267203927 ], [ -86.241689407548904, 12.124163410943398 ], [ -86.241935186610647, 12.124087703357468 ], [ -86.24259661615433, 12.123534650885746 ], [ -86.242682495095494, 12.123384201444203 ], [ -86.244787427469248, 12.121622715855327 ], [ -86.249870275009869, 12.117861954384729 ], [ -86.251039881509783, 12.117031784992243 ], [ -86.251211998718205, 12.116997970378041 ], [ -86.251433163941172, 12.117028271785777 ], [ -86.252054618454736, 12.117821376973405 ], [ -86.252536384941592, 12.118505483198037 ], [ -86.252556327540916, 12.118945246024261 ], [ -86.252522640717757, 12.121174965021797 ], [ -86.252563064905544, 12.12190025424502 ], [ -86.253252701549158, 12.124508749682345 ], [ -86.253404516832177, 12.124775482273051 ], [ -86.253699793066062, 12.125094998933742 ], [ -86.25458948452345, 12.125681422551045 ], [ -86.25470994860305, 12.125809474743461 ], [ -86.255481691263654, 12.126348118854805 ], [ -86.255635033682623, 12.126406348211741 ], [ -86.255942976162046, 12.126805521967912 ], [ -86.256092006667672, 12.127208296025776 ], [ -86.256242743972336, 12.127832129132109 ], [ -86.256154529411432, 12.129098410118473 ], [ -86.256258015332179, 12.12956142937977 ], [ -86.256354045236051, 12.129840891678276 ], [ -86.256361411421381, 12.129986155749146 ], [ -86.256902826043117, 12.131037429646335 ], [ -86.257121835309391, 12.131615672435206 ], [ -86.25723457387754, 12.132061561408362 ], [ -86.257254067319195, 12.132283759101538 ], [ -86.2572047498101, 12.132699522983181 ], [ -86.257276076043681, 12.132853392341488 ], [ -86.257406870749037, 12.132935157358183 ], [ -86.257510536332816, 12.133076028498898 ], [ -86.257755417079267, 12.133793995905238 ], [ -86.257815424540254, 12.133880590987079 ], [ -86.25835333573238, 12.135798497969583 ], [ -86.258912087839093, 12.137995757070618 ], [ -86.259370318465542, 12.139496388817962 ], [ -86.259535608477819, 12.140211616424819 ], [ -86.259687603423885, 12.141108458543902 ], [ -86.259775728153272, 12.142151521122754 ], [ -86.259787046925837, 12.142923913487111 ], [ -86.25971338507253, 12.143022273695609 ], [ -86.259432392051664, 12.144704754564343 ], [ -86.26025479969428, 12.14529745812777 ], [ -86.260380743497109, 12.145333113389702 ], [ -86.26161709482264, 12.144271093897952 ], [ -86.26198639223594, 12.144063221068071 ], [ -86.262437436340107, 12.143940973852793 ], [ -86.262705403789354, 12.143922092273586 ], [ -86.263154112273781, 12.143947384807287 ], [ -86.263596263056613, 12.144063923638123 ], [ -86.264098870458085, 12.144121007447719 ], [ -86.265626635261796, 12.14397241387473 ], [ -86.26844527912877, 12.144456660000623 ], [ -86.268483098202211, 12.143689365722278 ], [ -86.26826229230538, 12.143237173060452 ], [ -86.268160423352157, 12.14286349219817 ], [ -86.267850594410675, 12.141146222099977 ], [ -86.267814841462382, 12.140590482529788 ], [ -86.267830741642896, 12.139369309252208 ], [ -86.267988934964421, 12.138575477752223 ], [ -86.268161231835919, 12.138127667568359 ], [ -86.268506634062675, 12.137521159772813 ], [ -86.26867578683067, 12.137343229479907 ], [ -86.269061882739777, 12.13711910388753 ], [ -86.269402434063991, 12.136996326543427 ], [ -86.272499106511404, 12.136807769238857 ], [ -86.274503247910275, 12.136529807249357 ], [ -86.28028561356264, 12.135341110287955 ], [ -86.280663624634187, 12.13533180092992 ], [ -86.280952522829551, 12.13547056302559 ], [ -86.28105223582611, 12.135486459185097 ], [ -86.281243127823984, 12.135429197876785 ], [ -86.281346793407749, 12.135315729112895 ], [ -86.281384432818172, 12.135194795245562 ], [ -86.281365837691794, 12.135051817443436 ], [ -86.281274568858919, 12.134920871489804 ], [ -86.281200727342565, 12.134872392488626 ], [ -86.281163896415919, 12.134624025293562 ], [ -86.281375988654489, 12.133198280700332 ], [ -86.281259566993683, 12.132705670733225 ], [ -86.28106930381648, 12.132326793415949 ], [ -86.28082154846112, 12.13196671016277 ], [ -86.280696772468175, 12.131620151528471 ], [ -86.280632632756877, 12.131297656621657 ], [ -86.280642783719614, 12.131011521108057 ], [ -86.28086529641547, 12.129624488465808 ], [ -86.28115140983347, 12.128675087556026 ], [ -86.281311938774735, 12.128353906482904 ], [ -86.281671444551449, 12.127773285300151 ], [ -86.282853986791451, 12.126180105571102 ], [ -86.283172529391209, 12.125848382221839 ], [ -86.283393514951101, 12.125723316176325 ], [ -86.283559972773247, 12.125677119012655 ], [ -86.28368016735827, 12.125515253222058 ], [ -86.283699121810756, 12.125364365760669 ], [ -86.283607044494133, 12.125235522907397 ], [ -86.283590874819026, 12.125032026604012 ], [ -86.283614320847931, 12.123887982778188 ], [ -86.283653397562787, 12.123618087492176 ], [ -86.283857225300778, 12.122928197714764 ], [ -86.283894595216594, 12.122526910274862 ], [ -86.283807638297077, 12.12211877160941 ], [ -86.283434567959574, 12.121176985084134 ], [ -86.283332429511788, 12.120637364411083 ], [ -86.283516314650441, 12.119520704493606 ], [ -86.283756524157411, 12.11879119298167 ], [ -86.283922622653449, 12.118448920880581 ], [ -86.284236943171365, 12.117097394114598 ], [ -86.284515420909429, 12.116435329700964 ], [ -86.284673793894029, 12.116140570858423 ], [ -86.284852738298611, 12.116000656907726 ], [ -86.285036713268809, 12.115950681348233 ], [ -86.285491530297165, 12.115983178637537 ], [ -86.285693291909965, 12.115940668669115 ], [ -86.285913109660001, 12.115803301700042 ], [ -86.286112445821544, 12.115518467024161 ], [ -86.286445720791946, 12.11481142928098 ], [ -86.286763993897125, 12.113727154718619 ], [ -86.286824450515738, 12.111084826358329 ], [ -86.287070678735105, 12.109998077351767 ], [ -86.287193298771399, 12.109082246560421 ], [ -86.287152694920564, 12.108967800427967 ], [ -86.284374385409834, 12.108854583906389 ], [ -86.28200687547853, 12.109025857911876 ], [ -86.282125003938404, 12.109842525992546 ], [ -86.282385874696899, 12.1108734143668 ], [ -86.282583504059403, 12.111473131869316 ], [ -86.282724090401373, 12.112045005344978 ], [ -86.282790475900882, 12.112530275610357 ], [ -86.282887044793924, 12.113448290358528 ], [ -86.28285380712839, 12.114146899925853 ], [ -86.282950915010616, 12.114776823907349 ], [ -86.28298792560031, 12.115368100893226 ], [ -86.282769994312389, 12.116156995152902 ], [ -86.282748434745571, 12.116365855879135 ], [ -86.282774306225761, 12.116439721218802 ], [ -86.282869168319763, 12.116502959067672 ] ] } },
{ "type": "Feature", "properties": { "name": "Mercado Mayoreo", "attributes": { "official_status": "IRTRAMMA:bus_station" } }, "geometry": { "type": "Point", "coordinates": [ -86.194659637984813, 12.134983226713848 ] } },
{ "type": "Feature", "properties": { "name": "Pista El Mayoreo", "attributes": { "official_status": "IRTRAMMA:bus_stop" } }, "geometry": { "type": "Point", "coordinates": [ -86.196911714402106, 12.137309066147475 ] } },
{ "type": "Feature", "properties": { "name": "Concepción de María", "attributes": { "official_status": "IRTRAMMA:bus_stop" } }, "geometry": { "type": "Point", "coordinates": [ -86.196041426554842, 12.139546447787133 ] } },
{ "type": "Feature", "properties": { "name": "Los Rieles", "attributes": { "official_status": "IRTRAMMA:bus_stop" } }, "geometry": { "type": "Point", "coordinates": [ -86.195511869694855, 12.141704507349491 ] } },
{ "type": "Feature", "properties": { "name": "Policía Distrito VI", "attributes": { "official_status": "IRTRAMMA:bus_stop" } }, "geometry": { "type": "Point", "coordinates": [ -86.195131792498145, 12.147032616789424 ] } },
{ "type": "Feature", "properties": { "name": "Veterinaria Antares", "attributes": { "official_status": "IRTRAMMA:bus_stop" } }, "geometry": { "type": "Point", "coordinates": [ -86.197413692982863, 12.148280803441063 ] } },
{ "type": "Feature", "properties": { "name": "La Rocargo", "attributes": { "official_status": "IRTRAMMA:bus_stop" } }, "geometry": { "type": "Point", "coordinates": [ -86.199881993889051, 12.148561212118677 ] } },
{ "type": "Feature", "properties": { "name": "Entrada Barrio Hugo Chávez", "attributes": { "official_status": "IRTRAMMA:bus_stop" } }, "geometry": { "type": "Point", "coordinates": [ -86.202528251052996, 12.148794724788234 ] } },
{ "type": "Feature", "properties": { "name": "Bomberos Barrio Waspán", "attributes": { "official_status": "IRTRAMMA:bus_stop" } }, "geometry": { "type": "Point", "coordinates": [ -86.208234080243145, 12.149303288152007 ] } },
{ "type": "Feature", "properties": { "name": "Ecasa", "attributes": { "official_status": "IRTRAMMA:bus_stop" } }, "geometry": { "type": "Point", "coordinates": [ -86.211895164183574, 12.149634982296844 ] } },
{ "type": "Feature", "properties": { "name": "Pista Buenos Aires", "attributes": { "official_status": "IRTRAMMA:bus_stop" } }, "geometry": { "type": "Point", "coordinates": [ -86.21464868019244, 12.148931196558182 ] } },
{ "type": "Feature", "properties": { "name": "Miguel Gutierrez", "attributes": { "official_status": "IRTRAMMA:bus_stop" } }, "geometry": { "type": "Point", "coordinates": [ -86.215365176463081, 12.141563465126994 ] } },
{ "type": "Feature", "properties": { "name": "Rafaela Herrera", "attributes": { "official_status": "IRTRAMMA:bus_stop" } }, "geometry": { "type": "Point", "coordinates": [ -86.216655786031779, 12.137681788745653 ] } },
{ "type": "Feature", "properties": { "name": "UPOLI Norte", "attributes": { "official_status": "IRTRAMMA:bus_stop" } }, "geometry": { "type": "Point", "coordinates": [ -86.219603877131192, 12.138326674893429 ] } },
{ "type": "Feature", "properties": { "name": "RUPAP", "attributes": { "official_status": "IRTRAMMA:bus_stop" } }, "geometry": { "type": "Point", "coordinates": [ -86.224071378702178, 12.138350474965154 ] } },
{ "type": "Feature", "properties": { "name": "Semáforos Villa Progreso", "attributes": { "official_status": "IRTRAMMA:bus_stop" } }, "geometry": { "type": "Point", "coordinates": [ -86.227069236468324, 12.138358818163232 ] } },
{ "type": "Feature", "properties": { "name": "Cooperativa Parrales Vallejos", "attributes": { "official_status": "IRTRAMMA:bus_stop" } }, "geometry": { "type": "Point", "coordinates": [ -86.228950847662446, 12.136198184603833 ] } },
{ "type": "Feature", "properties": { "name": "Paso a desnivel Rubenia", "attributes": { "official_status": "IRTRAMMA:bus_stop" } }, "geometry": { "type": "Point", "coordinates": [ -86.230653424620442, 12.13201369666365 ] } },
{ "type": "Feature", "properties": { "name": "Semáforos Nicarao", "attributes": { "official_status": "IRTRAMMA:bus_stop" } }, "geometry": { "type": "Point", "coordinates": [ -86.233593430882308, 12.128669817976313 ] } },
{ "type": "Feature", "properties": { "name": "Ferretería Jenny", "attributes": { "official_status": "IRTRAMMA:bus_stop" } }, "geometry": { "type": "Point", "coordinates": [ -86.239103966329694, 12.126376223523383 ] } },
{ "type": "Feature", "properties": { "name": "Mercado Huembes Sureste", "attributes": { "official_status": "IRTRAMMA:bus_stop" } }, "geometry": { "type": "Point", "coordinates": [ -86.242264598825329, 12.123871998099162 ] } },
{ "type": "Feature", "properties": { "name": "Hospital Roberto Calderón", "attributes": { "official_status": "IRTRAMMA:bus_stop" } }, "geometry": { "type": "Point", "coordinates": [ -86.245489730358372, 12.121181288695142 ] } },
{ "type": "Feature", "properties": { "name": "Centro Comercial Managua", "attributes": { "official_status": "IRTRAMMA:bus_stop" } }, "geometry": { "type": "Point", "coordinates": [ -86.249248101844074, 12.118395081272242 ] } },
{ "type": "Feature", "properties": { "name": "Hospital Central", "attributes": { "official_status": "IRTRAMMA:bus_stop" } }, "geometry": { "type": "Point", "coordinates": [ -86.251731763941606, 12.117543131700906 ] } },
{ "type": "Feature", "properties": { "name": "Liceo Franciscano", "attributes": { "official_status": "IRTRAMMA:bus_stop" } }, "geometry": { "type": "Point", "coordinates": [ -86.252651638792543, 12.122655490951667 ] } },
{ "type": "Feature", "properties": { "name": "Altamira", "attributes": { "official_status": "IRTRAMMA:bus_stop" } }, "geometry": { "type": "Point", "coordinates": [ -86.254107718036579, 12.125471690843831 ] } },
{ "type": "Feature", "properties": { "name": "Colonia Máximo Jerez Oeste", "attributes": { "official_status": "IRTRAMMA:bus_stop" } }, "geometry": { "type": "Point", "coordinates": [ -86.256305985368343, 12.130070468595568 ] } },
{ "type": "Feature", "properties": { "name": "Rotonda Cristo Rey", "attributes": { "official_status": "IRTRAMMA:bus_stop" } }, "geometry": { "type": "Point", "coordinates": [ -86.257785780135862, 12.133913700863872 ] } },
{ "type": "Feature", "properties": { "name": "Clínica María Auxiliadora", "attributes": { "official_status": "IRTRAMMA:bus_stop" } }, "geometry": { "type": "Point", "coordinates": [ -86.258386124240246, 12.136292770871869 ] } },
{ "type": "Feature", "properties": { "name": "Pulpería María Auxiliadora", "attributes": { "official_status": "none" } }, "geometry": { "type": "Point", "coordinates": [ -86.259074682905521, 12.138777382901706 ] } },
{ "type": "Feature", "properties": { "name": "Gancho de Camino", "attributes": { "official_status": "IRTRAMMA:bus_stop" } }, "geometry": { "type": "Point", "coordinates": [ -86.260856581103113, 12.145000272212004 ] } },
{ "type": "Feature", "properties": { "name": "El Redentor", "attributes": { "official_status": "IRTRAMMA:bus_stop" } }, "geometry": { "type": "Point", "coordinates": [ -86.266723388392165, 12.144218401180773 ] } },
{ "type": "Feature", "properties": { "name": "Mirador Tiscapa", "attributes": { "official_status": "IRTRAMMA:bus_stop" } }, "geometry": { "type": "Point", "coordinates": [ -86.267858769079751, 12.14024911664052 ] } },
{ "type": "Feature", "properties": { "name": "Mabale", "attributes": { "official_status": "IRTRAMMA:bus_stop" } }, "geometry": { "type": "Point", "coordinates": [ -86.276801318070113, 12.136117211003224 ] } },
{ "type": "Feature", "properties": { "name": "Plaza España Este", "attributes": { "official_status": "IRTRAMMA:bus_stop" } }, "geometry": { "type": "Point", "coordinates": [ -86.28137904292646, 12.133510673463149 ] } },
{ "type": "Feature", "properties": { "name": "Paseo Naciones Unidas", "attributes": { "official_status": "IRTRAMMA:bus_stop" } }, "geometry": { "type": "Point", "coordinates": [ -86.28111978913546, 12.1289125698398 ] } },
{ "type": "Feature", "properties": { "name": "Universidad del Valle", "attributes": { "official_status": "IRTRAMMA:bus_stop" } }, "geometry": { "type": "Point", "coordinates": [ -86.283675496118789, 12.12422146512178 ] } },
{ "type": "Feature", "properties": { "name": "Farmacia El Valle", "attributes": { "official_status": "IRTRAMMA:bus_stop" } }, "geometry": { "type": "Point", "coordinates": [ -86.283597971509764, 12.119366388295088 ] } },
{ "type": "Feature", "properties": { "name": "Hospedaje San Francisco", "attributes": { "official_status": "IRTRAMMA:bus_stop" } }, "geometry": { "type": "Point", "coordinates": [ -86.284340249429036, 12.116904519058313 ] } },
{ "type": "Feature", "properties": { "name": "Bosques de Nejapa", "attributes": { "official_status": "IRTRAMMA:bus_stop" } }, "geometry": { "type": "Point", "coordinates": [ -86.28683226585872, 12.113222212392635 ] } },
{ "type": "Feature", "properties": { "name": "Barrio Memorial Sandino", "attributes": { "official_status": "IRTRAMMA:bus_stop" } }, "geometry": { "type": "Point", "coordinates": [ -86.287005371213965, 12.110407903367454 ] } },
{ "type": "Feature", "properties": { "name": "Pulpería La Pista", "attributes": { "official_status": "IRTRAMMA:bus_stop" } }, "geometry": { "type": "Point", "coordinates": [ -86.283664716335366, 12.108870920816273 ] } },
{ "type": "Feature", "properties": { "name": "Benito Juárez", "attributes": { "official_status": "IRTRAMMA:bus_stop" } }, "geometry": { "type": "Point", "coordinates": [ -86.282737475299115, 12.112452808090511 ] } },
{ "type": "Feature", "properties": { "name": "Rosa de Saron", "attributes": { "official_status": "IRTRAMMA:bus_stop" } }, "geometry": { "type": "Point", "coordinates": [ -86.282928007970867, 12.114905056995301 ] } },
{ "type": "Feature", "properties": { "name": "Terminal 104", "attributes": { "official_status": "IRTRAMMA:bus_station" } }, "geometry": { "type": "Point", "coordinates": [ -86.282858208873293, 12.116524126177636 ] } }
]
}
