{
"type": "FeatureCollection",
"features": [
{ "type": "Feature", "properties": { "name": "Ruta 107: Mercado Oriental -> Camilo Ortega", "attributes": { "operator": "Cooperativa Colón", "to": "Camilo Ortega", "ref": "107", "network": "IRTRAMMA", "from": "Mercado Oriental" } }, "geometry": { "type": "LineString", "coordinates": [ [ -86.26336261125121, 12.145499709464065 ], [ -86.264328390013162, 12.145486097242605 ], [ -86.264742243864561, 12.144042495251037 ], [ -86.265626635261796, 12.14397241387473 ], [ -86.267895510174881, 12.144352679767843 ], [ -86.27018962774747, 12.144780719756207 ], [ -86.270343329492576, 12.144878727994854 ], [ -86.270500175341184, 12.145119796492832 ], [ -86.270760237615931, 12.145353575643774 ], [ -86.271052100251751, 12.145496899199051 ], [ -86.271568451877073, 12.145631616244998 ], [ -86.272121364934435, 12.145637148951426 ], [ -86.272484913129929, 12.14550146587969 ], [ -86.272851246102775, 12.145296492098444 ], [ -86.273464885273356, 12.145362796830714 ], [ -86.273631343095531, 12.145409868789576 ], [ -86.273862030460478, 12.145537033293531 ], [ -86.274139699714809, 12.14581217562079 ], [ -86.274407307837933, 12.146155729892575 ], [ -86.274580862350831, 12.146263485703971 ], [ -86.274747769330631, 12.146258919036397 ], [ -86.275243729198976, 12.146001429115231 ], [ -86.275845780102401, 12.145787146726292 ], [ -86.287549929939189, 12.147861463260801 ], [ -86.290083179040408, 12.147890970779915 ], [ -86.292321601065396, 12.148005751485336 ], [ -86.293219107865752, 12.148079783696772 ], [ -86.295002982356948, 12.148312857689444 ], [ -86.29740471810058, 12.148446256013159 ], [ -86.297537489099568, 12.145401086708336 ], [ -86.297437865934555, 12.144684731365654 ], [ -86.297320096800803, 12.144305431979713 ], [ -86.297183193551504, 12.144003151322748 ], [ -86.296812728328334, 12.143344666588575 ], [ -86.296369499567149, 12.142829417395449 ], [ -86.293188834640659, 12.138867225813753 ], [ -86.29283750353305, 12.138558176607887 ], [ -86.292434698959653, 12.138311481488598 ], [ -86.293004051186728, 12.133663751930989 ], [ -86.293100799742817, 12.133650314754016 ], [ -86.294495613884479, 12.133823417158306 ], [ -86.294710850226551, 12.13381507381821 ], [ -86.294777505220623, 12.132939197304655 ], [ -86.294881799625131, 12.132160803879191 ], [ -86.294930128987403, 12.132103102730291 ], [ -86.295026697880445, 12.132061210107508 ], [ -86.296666213105496, 12.132213850282078 ], [ -86.296933192407934, 12.129533764177149 ], [ -86.297259280856082, 12.126823350836814 ], [ -86.297242212865683, 12.126076469514782 ], [ -86.296993199868908, 12.124465274967431 ], [ -86.297164867919705, 12.123206613027453 ], [ -86.297931669846236, 12.119938332687985 ], [ -86.297585099809623, 12.119753188660605 ], [ -86.297173491746449, 12.119690478557686 ], [ -86.298571270328523, 12.106550366940562 ], [ -86.297658851494432, 12.106494416925608 ], [ -86.297799078510295, 12.105636808008537 ], [ -86.298485750713482, 12.103010122027747 ], [ -86.298513688318806, 12.102758299614282 ], [ -86.298355225502704, 12.102035593441828 ], [ -86.298317675923812, 12.101653686182136 ], [ -86.298509286573918, 12.101091715859502 ], [ -86.298568934708783, 12.100675551392239 ], [ -86.298365645959976, 12.099543963727212 ], [ -86.298354327187411, 12.099284320643795 ], [ -86.299290910702624, 12.099149053172924 ], [ -86.299347414734001, 12.098081228274076 ], [ -86.299377418464488, 12.097983202841313 ], [ -86.302233342415775, 12.098791560241821 ], [ -86.302608209383834, 12.098859984601503 ], [ -86.302946604751369, 12.097167728224193 ], [ -86.302940945365066, 12.096540573498123 ], [ -86.302863869913693, 12.095837526030909 ], [ -86.303603722381695, 12.095686885309865 ], [ -86.303745476533521, 12.095699797374996 ], [ -86.304500780024412, 12.096035510849491 ], [ -86.304856423045393, 12.096050706661366 ], [ -86.306030251627149, 12.095889789118392 ], [ -86.306281330749059, 12.095824613972431 ], [ -86.306483092361887, 12.095636378926661 ], [ -86.30655792202505, 12.095405279162867 ], [ -86.30681888261509, 12.094934910155445 ], [ -86.306963511375827, 12.094781194614157 ], [ -86.307060978584147, 12.09472278268529 ], [ -86.309358779249408, 12.094415614783218 ], [ -86.310053805784733, 12.094244067900249 ], [ -86.309732298744535, 12.09319818291025 ], [ -86.309012478707388, 12.090536766183682 ], [ -86.309526315049894, 12.090543705454454 ], [ -86.309481309454156, 12.088901377074405 ] ] } },
{ "type": "Feature", "properties": { "name": "El Panal", "attributes": { "official_status": "none" } }, "geometry": { "type": "Point", "coordinates": [ -86.263352190793924, 12.145596400126792 ] } },
{ "type": "Feature", "properties": { "name": "El Redentor", "attributes": { "official_status": "IRTRAMMA:bus_stop" } }, "geometry": { "type": "Point", "coordinates": [ -86.266723388392165, 12.144218401180773 ] } },
{ "type": "Feature", "properties": { "name": "Plaza Inter", "attributes": { "official_status": "IRTRAMMA:bus_stop" } }, "geometry": { "type": "Point", "coordinates": [ -86.273691709882613, 12.14550691076804 ] } },
{ "type": "Feature", "properties": { "name": "Calle Colon", "attributes": { "official_status": "IRTRAMMA:bus_stop" } }, "geometry": { "type": "Point", "coordinates": [ -86.27625226776847, 12.145810331386539 ] } },
{ "type": "Feature", "properties": { "name": "Cabrera", "attributes": { "official_status": "IRTRAMMA:bus_stop" } }, "geometry": { "type": "Point", "coordinates": [ -86.277968319455724, 12.14620227478793 ] } },
{ "type": "Feature", "properties": { "name": "Estadio Cranshaw", "attributes": { "official_status": "IRTRAMMA:bus_stop" } }, "geometry": { "type": "Point", "coordinates": [ -86.283552516756401, 12.147228807212972 ] } },
{ "type": "Feature", "properties": { "name": "Salud Integral", "attributes": { "official_status": "IRTRAMMA:bus_stop" } }, "geometry": { "type": "Point", "coordinates": [ -86.288320594621439, 12.147955694106507 ] } },
{ "type": "Feature", "properties": { "name": "Farmacia Dayser", "attributes": { "official_status": "IRTRAMMA:bus_stop" } }, "geometry": { "type": "Point", "coordinates": [ -86.292059113339363, 12.148032448750197 ] } },
{ "type": "Feature", "properties": { "name": "Parque Mennen", "attributes": { "official_status": "IRTRAMMA:bus_stop" } }, "geometry": { "type": "Point", "coordinates": [ -86.29626816960311, 12.148432819582 ] } },
{ "type": "Feature", "properties": { "name": "Hospital Dermatológico", "attributes": { "official_status": "IRTRAMMA:bus_stop" } }, "geometry": { "type": "Point", "coordinates": [ -86.297507575200598, 12.147542413001535 ] } },
{ "type": "Feature", "properties": { "name": "Accesa", "attributes": { "official_status": "IRTRAMMA:bus_stop" } }, "geometry": { "type": "Point", "coordinates": [ -86.296852883021543, 12.143326663182066 ] } },
{ "type": "Feature", "properties": { "name": "Agroalfa", "attributes": { "official_status": "IRTRAMMA:bus_stop" } }, "geometry": { "type": "Point", "coordinates": [ -86.293765463221533, 12.139459503255701 ] } },
{ "type": "Feature", "properties": { "name": "Panadería Levi", "attributes": { "official_status": "IRTRAMMA:bus_stop" } }, "geometry": { "type": "Point", "coordinates": [ -86.292527135602384, 12.137897658475682 ] } },
{ "type": "Feature", "properties": { "name": "Ferretería Avilés", "attributes": { "official_status": "IRTRAMMA:bus_stop" } }, "geometry": { "type": "Point", "coordinates": [ -86.292826364423533, 12.135284200245 ] } },
{ "type": "Feature", "properties": { "name": "Palí Altagracia", "attributes": { "official_status": "IRTRAMMA:bus_stop" } }, "geometry": { "type": "Point", "coordinates": [ -86.295449534884682, 12.132147805752371 ] } },
{ "type": "Feature", "properties": { "name": "Alcaldía de Managua", "attributes": { "official_status": "IRTRAMMA:bus_stop" } }, "geometry": { "type": "Point", "coordinates": [ -86.297165586571921, 12.128021922358347 ] } },
{ "type": "Feature", "properties": { "name": "El Zumen Oeste", "attributes": { "official_status": "IRTRAMMA:bus_stop" } }, "geometry": { "type": "Point", "coordinates": [ -86.29716729337099, 12.125299197808577 ] } },
{ "type": "Feature", "properties": { "name": "Plantel Los Cocos", "attributes": { "official_status": "IRTRAMMA:bus_stop" } }, "geometry": { "type": "Point", "coordinates": [ -86.297878938739061, 12.120494290973404 ] } },
{ "type": "Feature", "properties": { "name": "Farmacia Los Cocos", "attributes": { "official_status": "IRTRAMMA:bus_stop" } }, "geometry": { "type": "Point", "coordinates": [ -86.297295393130497, 12.119176852398104 ] } },
{ "type": "Feature", "properties": { "name": "Iglesia San Judas Tadeo", "attributes": { "official_status": "IRTRAMMA:bus_stop" } }, "geometry": { "type": "Point", "coordinates": [ -86.297549616355894, 12.116796400056401 ] } },
{ "type": "Feature", "properties": { "name": "Comercial Enmanuel", "attributes": { "official_status": "none" } }, "geometry": { "type": "Point", "coordinates": [ -86.297699635008357, 12.115263757990892 ] } },
{ "type": "Feature", "properties": { "name": "El Nancite", "attributes": { "official_status": "IRTRAMMA:bus_stop" } }, "geometry": { "type": "Point", "coordinates": [ -86.298005780857181, 12.112508493362149 ] } },
{ "type": "Feature", "properties": { "name": "Cooperativa de Panificadores", "attributes": { "official_status": "IRTRAMMA:bus_stop" } }, "geometry": { "type": "Point", "coordinates": [ -86.298385319064721, 12.108977549870168 ] } },
{ "type": "Feature", "properties": { "name": "San Judas", "attributes": { "official_status": "none" } }, "geometry": { "type": "Point", "coordinates": [ -86.298210596741953, 12.106504781293465 ] } },
{ "type": "Feature", "properties": { "name": "Palí Villa Roma", "attributes": { "official_status": "IRTRAMMA:bus_stop" } }, "geometry": { "type": "Point", "coordinates": [ -86.297762876404349, 12.106097759968641 ] } },
{ "type": "Feature", "properties": { "name": "Pulpería La Esquinita", "attributes": { "official_status": "IRTRAMMA:bus_stop" } }, "geometry": { "type": "Point", "coordinates": [ -86.298523030797767, 12.102927908667381 ] } },
{ "type": "Feature", "properties": { "name": "Sorbetería Haydee", "attributes": { "official_status": "none" } }, "geometry": { "type": "Point", "coordinates": [ -86.298580163649845, 12.100802385882744 ] } },
{ "type": "Feature", "properties": { "name": "Quinta Santa María", "attributes": { "official_status": "none" } }, "geometry": { "type": "Point", "coordinates": [ -86.298523120629298, 12.099301009482856 ] } },
{ "type": "Feature", "properties": { "name": "Barrio Sierra Maestra", "attributes": { "official_status": "none" } }, "geometry": { "type": "Point", "coordinates": [ -86.299339779054094, 12.098731480301788 ] } },
{ "type": "Feature", "properties": { "name": "Pulpería Telma", "attributes": { "official_status": "IRTRAMMA:bus_stop" } }, "geometry": { "type": "Point", "coordinates": [ -86.299391432182929, 12.098099322570445 ] } },
{ "type": "Feature", "properties": { "name": "La Parrilla", "attributes": { "official_status": "none" } }, "geometry": { "type": "Point", "coordinates": [ -86.302968523644296, 12.096621119922734 ] } },
{ "type": "Feature", "properties": { "name": "La Hispanidad", "attributes": { "official_status": "none" } }, "geometry": { "type": "Point", "coordinates": [ -86.304383370216769, 12.096042801325812 ] } },
{ "type": "Feature", "properties": { "name": "Plazoleta Camilo Ortega", "attributes": { "official_status": "IRTRAMMA:bus_stop" } }, "geometry": { "type": "Point", "coordinates": [ -86.307099246815255, 12.094775748690498 ] } },
{ "type": "Feature", "properties": { "name": "", "attributes": { "official_status": "none" } }, "geometry": { "type": "Point", "coordinates": [ -86.308930372690412, 12.094496776710997 ] } },
{ "type": "Feature", "properties": { "name": "", "attributes": { "official_status": "none" } }, "geometry": { "type": "Point", "coordinates": [ -86.310085965471913, 12.094140595123974 ] } },
{ "type": "Feature", "properties": { "name": "Colegio Cristiano Restauración", "attributes": { "official_status": "IRTRAMMA:bus_stop" } }, "geometry": { "type": "Point", "coordinates": [ -86.309709301873269, 12.09292649984622 ] } },
{ "type": "Feature", "properties": { "name": "", "attributes": { "official_status": "IRTRAMMA:bus_stop" } }, "geometry": { "type": "Point", "coordinates": [ -86.309572488455487, 12.090207985085508 ] } },
{ "type": "Feature", "properties": { "name": "Terminal Camilo Ortega", "attributes": { "official_status": "IRTRAMMA:bus_station" } }, "geometry": { "type": "Point", "coordinates": [ -86.309404144171239, 12.088891714739288 ] } }
]
}
