{
"type": "FeatureCollection",
"features": [
{ "type": "Feature", "properties": { "name": "Ruta 107: Camilo Ortega -> Mercado Oriental", "attributes": { "operator": "Cooperativa Colón", "to": "Mercado Oriental", "ref": "107", "network": "IRTRAMMA", "from": "Camilo Ortega" } }, "geometry": { "type": "LineString", "coordinates": [ [ -86.309481309454156, 12.088901377074405 ], [ -86.309526315049894, 12.090543705454454 ], [ -86.309012478707388, 12.090536766183682 ], [ -86.309732298744535, 12.09319818291025 ], [ -86.310053805784733, 12.094244067900249 ], [ -86.309358779249408, 12.094415614783218 ], [ -86.307060978584147, 12.09472278268529 ], [ -86.306963511375827, 12.094781194614157 ], [ -86.30681888261509, 12.094934910155445 ], [ -86.30655792202505, 12.095405279162867 ], [ -86.306483092361887, 12.095636378926661 ], [ -86.306281330749059, 12.095824613972431 ], [ -86.306030251627149, 12.095889789118392 ], [ -86.304856423045393, 12.096050706661366 ], [ -86.304500780024412, 12.096035510849491 ], [ -86.303745476533521, 12.095699797374996 ], [ -86.303603722381695, 12.095686885309865 ], [ -86.302863869913693, 12.095837526030909 ], [ -86.302940945365066, 12.096540573498123 ], [ -86.302946604751369, 12.097167728224193 ], [ -86.302737566784756, 12.098088255185425 ], [ -86.302608209383834, 12.098859984601503 ], [ -86.302233342415775, 12.098791560241821 ], [ -86.299377418464488, 12.097983202841313 ], [ -86.299347414734001, 12.098081228274076 ], [ -86.299290910702624, 12.099149053172924 ], [ -86.298354327187411, 12.099284320643795 ], [ -86.298365645959976, 12.099543963727212 ], [ -86.298568934708783, 12.100675551392239 ], [ -86.298509286573918, 12.101091715859502 ], [ -86.298317675923812, 12.101653686182136 ], [ -86.298355225502704, 12.102035593441828 ], [ -86.298513688318806, 12.102758299614282 ], [ -86.298485750713482, 12.103010122027747 ], [ -86.297799078510295, 12.105636808008537 ], [ -86.297658851494432, 12.106494416925608 ], [ -86.29647909403181, 12.117882330917968 ], [ -86.296000202153849, 12.122259121494235 ], [ -86.295782989518145, 12.123911520655469 ], [ -86.295577814307251, 12.126187483051535 ], [ -86.295589402574421, 12.126304380958418 ], [ -86.29525091737537, 12.128845646229461 ], [ -86.294930128987403, 12.131992969909142 ], [ -86.294817480250785, 12.132050671081883 ], [ -86.293148769779009, 12.13188037793488 ], [ -86.292980694989339, 12.133549404168143 ], [ -86.292933892763045, 12.133614745752912 ], [ -86.292797528502902, 12.133644518324541 ], [ -86.29206567104093, 12.133573292491304 ], [ -86.29159549282123, 12.138019732818398 ], [ -86.291959669837411, 12.138113528030793 ], [ -86.29258974817769, 12.138386218980324 ], [ -86.29283750353305, 12.138558176607887 ], [ -86.293188834640659, 12.138867225813753 ], [ -86.296369499567149, 12.142829417395449 ], [ -86.296812728328334, 12.143344666588575 ], [ -86.297024012083156, 12.143681461798101 ], [ -86.297320096800803, 12.144305431979713 ], [ -86.297437865934555, 12.144684731365654 ], [ -86.297516827848028, 12.145138677987093 ], [ -86.297540184045417, 12.145643208582143 ], [ -86.29740471810058, 12.148446256013159 ], [ -86.295002982356948, 12.148312857689444 ], [ -86.293219107865752, 12.148079783696772 ], [ -86.292321601065396, 12.148005751485336 ], [ -86.290083179040408, 12.147890970779915 ], [ -86.287794631022578, 12.147883066980468 ], [ -86.28705064630428, 12.147782776527174 ], [ -86.283706577827616, 12.150741504651103 ], [ -86.283038680413867, 12.151082330173214 ], [ -86.28250112854785, 12.151030077899135 ], [ -86.282084939076725, 12.150612761889887 ], [ -86.28200975008744, 12.150481560130553 ], [ -86.281944981555455, 12.150260519269219 ], [ -86.282351648884571, 12.145900259746529 ], [ -86.279397898398869, 12.145601405909455 ], [ -86.278031021862546, 12.145318798593001 ], [ -86.27569773774357, 12.144900595419513 ], [ -86.275548437743353, 12.145732785715783 ], [ -86.275318469030623, 12.1458526609504 ], [ -86.275153448512938, 12.145893058453202 ], [ -86.27500513665953, 12.145861091734108 ], [ -86.274859789246563, 12.145721895948205 ], [ -86.274684438103094, 12.14565076116515 ], [ -86.274588498030738, 12.145656557333375 ], [ -86.27444934899323, 12.145723828003778 ], [ -86.274189735876121, 12.145672013781349 ], [ -86.27383759628475, 12.145392831551689 ], [ -86.273601968185716, 12.145296492098444 ], [ -86.273213536656868, 12.145223864246907 ], [ -86.272866607294148, 12.145219912307629 ], [ -86.272744975404677, 12.145260924652465 ], [ -86.272445836415073, 12.145429101546485 ], [ -86.272300399170561, 12.145564433372062 ], [ -86.272121364934435, 12.145637148951426 ], [ -86.271568451877073, 12.145631616244998 ], [ -86.271052100251751, 12.145496899199051 ], [ -86.270760237615931, 12.145353575643774 ], [ -86.270500175341184, 12.145119796492832 ], [ -86.270343329492576, 12.144878727994854 ], [ -86.27018962774747, 12.144780719756207 ], [ -86.267895510174881, 12.144352679767843 ], [ -86.265626635261796, 12.14397241387473 ], [ -86.264098870458085, 12.144121007447719 ], [ -86.263596263056613, 12.144063923638123 ], [ -86.263221126593962, 12.145502871012184 ], [ -86.26336261125121, 12.145499709464065 ] ] } },
{ "type": "Feature", "properties": { "name": "Terminal 107", "attributes": { "official_status": "IRTRAMMA:bus_stop" } }, "geometry": { "type": "Point", "coordinates": [ -86.30942669188488, 12.088861058782845 ] } },
{ "type": "Feature", "properties": { "name": "", "attributes": { "official_status": "IRTRAMMA:bus_stop" } }, "geometry": { "type": "Point", "coordinates": [ -86.309512211499921, 12.090209478348157 ] } },
{ "type": "Feature", "properties": { "name": "", "attributes": { "official_status": "IRTRAMMA:bus_stop" } }, "geometry": { "type": "Point", "coordinates": [ -86.309378182859533, 12.092137273472986 ] } },
{ "type": "Feature", "properties": { "name": "Colegio Cristiano Restauración", "attributes": { "official_status": "IRTRAMMA:bus_stop" } }, "geometry": { "type": "Point", "coordinates": [ -86.309610127865909, 12.092935283654743 ] } },
{ "type": "Feature", "properties": { "name": "", "attributes": { "official_status": "none" } }, "geometry": { "type": "Point", "coordinates": [ -86.309974664208198, 12.094161588330547 ] } },
{ "type": "Feature", "properties": { "name": "", "attributes": { "official_status": "none" } }, "geometry": { "type": "Point", "coordinates": [ -86.308926330271632, 12.094449695768876 ] } },
{ "type": "Feature", "properties": { "name": "Plazoleta Camilo Ortega", "attributes": { "official_status": "IRTRAMMA:bus_stop" } }, "geometry": { "type": "Point", "coordinates": [ -86.307066727801981, 12.094674559895312 ] } },
{ "type": "Feature", "properties": { "name": "La Hispanidad", "attributes": { "official_status": "none" } }, "geometry": { "type": "Point", "coordinates": [ -86.304862172263213, 12.095933268485885 ] } },
{ "type": "Feature", "properties": { "name": "La Parrilla", "attributes": { "official_status": "none" } }, "geometry": { "type": "Point", "coordinates": [ -86.302815091393754, 12.096375000891486 ] } },
{ "type": "Feature", "properties": { "name": "Pulperia", "attributes": { "official_status": "none" } }, "geometry": { "type": "Point", "coordinates": [ -86.302696423944738, 12.098093349696061 ] } },
{ "type": "Feature", "properties": { "name": "Pulperia", "attributes": { "official_status": "none" } }, "geometry": { "type": "Point", "coordinates": [ -86.301323708359064, 12.098557828118533 ] } },
{ "type": "Feature", "properties": { "name": "Pulperia", "attributes": { "official_status": "none" } }, "geometry": { "type": "Point", "coordinates": [ -86.299293605648487, 12.098731480301788 ] } },
{ "type": "Feature", "properties": { "name": "Quinta Santa María", "attributes": { "official_status": "none" } }, "geometry": { "type": "Point", "coordinates": [ -86.298471826826571, 12.099227051567079 ] } },
{ "type": "Feature", "properties": { "name": "Sorbetería Haydee", "attributes": { "official_status": "none" } }, "geometry": { "type": "Point", "coordinates": [ -86.298538930978296, 12.100797554930262 ] } },
{ "type": "Feature", "properties": { "name": "Pulpería Manuel", "attributes": { "official_status": "IRTRAMMA:bus_stop" } }, "geometry": { "type": "Point", "coordinates": [ -86.298344894876934, 12.10149347469449 ] } },
{ "type": "Feature", "properties": { "name": "Pulpería La Esquinita", "attributes": { "official_status": "IRTRAMMA:bus_stop" } }, "geometry": { "type": "Point", "coordinates": [ -86.298464370809711, 12.102929577528569 ] } },
{ "type": "Feature", "properties": { "name": "Palí", "attributes": { "official_status": "IRTRAMMA:bus_stop" } }, "geometry": { "type": "Point", "coordinates": [ -86.297668463467986, 12.106100921983908 ] } },
{ "type": "Feature", "properties": { "name": "Parque", "attributes": { "official_status": "none" } }, "geometry": { "type": "Point", "coordinates": [ -86.297514402396743, 12.107635988144686 ] } },
{ "type": "Feature", "properties": { "name": "Farmacia López Vargas", "attributes": { "official_status": "IRTRAMMA:bus_stop" } }, "geometry": { "type": "Point", "coordinates": [ -86.297325307029467, 12.109372797227399 ] } },
{ "type": "Feature", "properties": { "name": "Pulpería Esperanza", "attributes": { "official_status": "IRTRAMMA:bus_stop" } }, "geometry": { "type": "Point", "coordinates": [ -86.296961669002442, 12.112942557021523 ] } },
{ "type": "Feature", "properties": { "name": "El Ceibo", "attributes": { "official_status": "IRTRAMMA:bus_stop" } }, "geometry": { "type": "Point", "coordinates": [ -86.296612583683043, 12.116386408187356 ] } },
{ "type": "Feature", "properties": { "name": "Pulpería", "attributes": { "official_status": "none" } }, "geometry": { "type": "Point", "coordinates": [ -86.296473793971629, 12.117487008329526 ] } },
{ "type": "Feature", "properties": { "name": "Colegio Bautista Belén", "attributes": { "official_status": "IRTRAMMA:bus_stop" } }, "geometry": { "type": "Point", "coordinates": [ -86.296256132178286, 12.11932062917751 ] } },
{ "type": "Feature", "properties": { "name": "Pulperia", "attributes": { "official_status": "none" } }, "geometry": { "type": "Point", "coordinates": [ -86.295969210276539, 12.122260965891483 ] } },
{ "type": "Feature", "properties": { "name": "Colegio La Senda", "attributes": { "official_status": "IRTRAMMA:bus_stop" } }, "geometry": { "type": "Point", "coordinates": [ -86.295657584704486, 12.125015163718217 ] } },
{ "type": "Feature", "properties": { "name": "Alcaldía de Managua", "attributes": { "official_status": "IRTRAMMA:bus_stop" } }, "geometry": { "type": "Point", "coordinates": [ -86.295327633500619, 12.127849079666371 ] } },
{ "type": "Feature", "properties": { "name": "Farmacia Asunción", "attributes": { "official_status": "IRTRAMMA:bus_stop" } }, "geometry": { "type": "Point", "coordinates": [ -86.294927703536146, 12.131682507524806 ] } },
{ "type": "Feature", "properties": { "name": "Pulpería", "attributes": { "official_status": "IRTRAMMA:bus_stop" } }, "geometry": { "type": "Point", "coordinates": [ -86.29312191015201, 12.131979708298418 ] } },
{ "type": "Feature", "properties": { "name": "Libro Café Rosita", "attributes": { "official_status": "IRTRAMMA:bus_stop" } }, "geometry": { "type": "Point", "coordinates": [ -86.293017436084455, 12.133101497712159 ] } },
{ "type": "Feature", "properties": { "name": "Puente", "attributes": { "official_status": "IRTRAMMA:bus_stop" } }, "geometry": { "type": "Point", "coordinates": [ -86.291949249380096, 12.134534532248216 ] } },
{ "type": "Feature", "properties": { "name": "Galilea", "attributes": { "official_status": "IRTRAMMA:bus_stop" } }, "geometry": { "type": "Point", "coordinates": [ -86.291693948176373, 12.136769214654802 ] } },
{ "type": "Feature", "properties": { "name": "Agroalfa", "attributes": { "official_status": "IRTRAMMA:bus_station" } }, "geometry": { "type": "Point", "coordinates": [ -86.293529385964874, 12.139367025859308 ] } },
{ "type": "Feature", "properties": { "name": "Autolavado Ticuer", "attributes": { "official_status": "IRTRAMMA:bus_stop" } }, "geometry": { "type": "Point", "coordinates": [ -86.295916748663956, 12.142358692870472 ] } },
{ "type": "Feature", "properties": { "name": "Cerrajeria Lico", "attributes": { "official_status": "none" } }, "geometry": { "type": "Point", "coordinates": [ -86.297406514731136, 12.146225195950391 ] } },
{ "type": "Feature", "properties": { "name": "Parque Mennen", "attributes": { "official_status": "IRTRAMMA:bus_stop" } }, "geometry": { "type": "Point", "coordinates": [ -86.2962750866308, 12.148355713774398 ] } },
{ "type": "Feature", "properties": { "name": "Farmacia Dayser", "attributes": { "official_status": "IRTRAMMA:bus_stop" } }, "geometry": { "type": "Point", "coordinates": [ -86.292064143904952, 12.147947263389131 ] } },
{ "type": "Feature", "properties": { "name": "Salud Integral", "attributes": { "official_status": "IRTRAMMA:bus_stop" } }, "geometry": { "type": "Point", "coordinates": [ -86.28929373956872, 12.147820363496589 ] } },
{ "type": "Feature", "properties": { "name": "Ruta Maya", "attributes": { "official_status": "IRTRAMMA:bus_stop" } }, "geometry": { "type": "Point", "coordinates": [ -86.286459824341904, 12.148227848057891 ] } },
{ "type": "Feature", "properties": { "name": "Estadio Nacional", "attributes": { "official_status": "IRTRAMMA:bus_stop" } }, "geometry": { "type": "Point", "coordinates": [ -86.282045682698808, 12.14984469498209 ] } },
{ "type": "Feature", "properties": { "name": "27 De Mayo", "attributes": { "official_status": "IRTRAMMA:bus_stop" } }, "geometry": { "type": "Point", "coordinates": [ -86.282141532939633, 12.145823416667376 ] } },
{ "type": "Feature", "properties": { "name": "Mangueras", "attributes": { "official_status": "IRTRAMMA:bus_stop" } }, "geometry": { "type": "Point", "coordinates": [ -86.279159844848579, 12.145489961357162 ] } },
{ "type": "Feature", "properties": { "name": "Central Line", "attributes": { "official_status": "IRTRAMMA:bus_stop" } }, "geometry": { "type": "Point", "coordinates": [ -86.276137822401267, 12.144917808330833 ] } },
{ "type": "Feature", "properties": { "name": "Plaza Inter", "attributes": { "official_status": "IRTRAMMA:bus_stop" } }, "geometry": { "type": "Point", "coordinates": [ -86.273874786537519, 12.145336889685634 ] } },
{ "type": "Feature", "properties": { "name": "Barracudas", "attributes": { "official_status": "IRTRAMMA:bus_stop" } }, "geometry": { "type": "Point", "coordinates": [ -86.271916549049664, 12.145599210390751 ] } },
{ "type": "Feature", "properties": { "name": "El Redentor", "attributes": { "official_status": "IRTRAMMA:bus_stop" } }, "geometry": { "type": "Point", "coordinates": [ -86.267135176118416, 12.144169396944424 ] } },
{ "type": "Feature", "properties": { "name": "El Panal", "attributes": { "official_status": "none" } }, "geometry": { "type": "Point", "coordinates": [ -86.26336261125121, 12.145440693892446 ] } }
]
}
