{
"type": "FeatureCollection",
"features": [
{ "type": "Feature", "properties": { "name": null }, "geometry": { "type": "LineString", "coordinates": [ [ -86.296951068882095, 12.123167353851123 ], [ -86.295903184103153, 12.122980016359639 ], [ -86.295782989518145, 12.123911520655469 ], [ -86.295607728206207, 12.125828796742459 ], [ -86.297165676403466, 12.125669829345417 ], [ -86.299444971773852, 12.125358832633287 ], [ -86.300936444640087, 12.125123455044388 ], [ -86.302536883150282, 12.124788305104081 ], [ -86.304085129542457, 12.12442136110678 ], [ -86.305886072024052, 12.123924255700137 ], [ -86.308547241221717, 12.123080316148751 ], [ -86.30957176980327, 12.122843267812314 ], [ -86.310229067096657, 12.122787760353706 ], [ -86.310603035749438, 12.122788023838503 ], [ -86.311285485870769, 12.122861272602581 ], [ -86.311778121972594, 12.12296148460814 ], [ -86.312690630638201, 12.123261593430248 ], [ -86.312914041649378, 12.123584800680732 ], [ -86.31298069664345, 12.123774157790113 ], [ -86.311688649770289, 12.127546780339218 ], [ -86.311248834607184, 12.128746753829626 ], [ -86.310908193451453, 12.129467982461598 ], [ -86.31063896836082, 12.130354409474975 ], [ -86.310560725099549, 12.130738032180904 ], [ -86.308631862521494, 12.135884565456319 ], [ -86.308135363663965, 12.136698867893635 ], [ -86.307825085564829, 12.137048230277351 ], [ -86.307345475034637, 12.137469080484191 ], [ -86.307345385203107, 12.137549790203721 ], [ -86.307652788693346, 12.137902664403059 ], [ -86.307714592784876, 12.13806935294892 ], [ -86.307763191641754, 12.138591110257309 ], [ -86.307729235324018, 12.139444573383818 ], [ -86.307609489896635, 12.13992145064296 ], [ -86.307405302832564, 12.140381201667319 ], [ -86.307203990377388, 12.140694552053981 ], [ -86.305218264441834, 12.143343876195139 ], [ -86.305036445428343, 12.143616210503948 ], [ -86.304911220277731, 12.143926746802544 ], [ -86.304362080144557, 12.155797375070744 ], [ -86.304276021540332, 12.158198467120643 ], [ -86.293123616951036, 12.157748845798324 ], [ -86.287874940408997, 12.157500851212493 ], [ -86.287387873861945, 12.157454659560825 ], [ -86.282163721327137, 12.157262164986918 ], [ -86.282097964648358, 12.157199990614837 ], [ -86.282108744431753, 12.157030152637383 ], [ -86.282347336971227, 12.154760601025856 ], [ -86.277632529202506, 12.154530694121588 ], [ -86.274134579317675, 12.154130595918319 ], [ -86.272614719688463, 12.154040319067562 ], [ -86.271512576666382, 12.154023282382175 ], [ -86.270236070647655, 12.154076851337702 ], [ -86.26959152943131, 12.154065347185863 ], [ -86.26485848586232, 12.153605356340734 ], [ -86.263775027798161, 12.153617826511596 ], [ -86.262017204450189, 12.153930019683028 ], [ -86.261549092355651, 12.153928878049044 ], [ -86.260975607878265, 12.15384755856871 ], [ -86.245021169106167, 12.152432718578018 ], [ -86.244698494256113, 12.152302571538476 ], [ -86.242860720847872, 12.152118064728917 ], [ -86.238779225354477, 12.151768195206111 ], [ -86.224234512757775, 12.150429571195968 ], [ -86.223763615885844, 12.150330072074945 ], [ -86.223343833153564, 12.150393653159215 ], [ -86.222802149037236, 12.150289411787947 ], [ -86.215166289459162, 12.149586769432522 ], [ -86.214931649506951, 12.149498686526705 ], [ -86.214736894753358, 12.149324277017998 ], [ -86.213737608831295, 12.146523258703214 ], [ -86.213704820323443, 12.146349725449866 ], [ -86.213638165329357, 12.144953288001695 ], [ -86.213703922008136, 12.144724602119457 ], [ -86.213859420383827, 12.144441027839852 ], [ -86.214631881696633, 12.143356698132727 ], [ -86.21506621713651, 12.142667298557836 ], [ -86.21520330004887, 12.142172422730726 ], [ -86.215755045296362, 12.13902715139162 ], [ -86.215990314069288, 12.138528316762244 ], [ -86.216983401615877, 12.137029875150947 ], [ -86.217047631158692, 12.136546405935544 ], [ -86.217517000894645, 12.128424958057977 ], [ -86.216396801735357, 12.128251852147875 ], [ -86.214901196618825, 12.128092271409729 ], [ -86.215338945656782, 12.125393700116659 ], [ -86.215608170747416, 12.123963866076584 ], [ -86.210391294566421, 12.123145133330407 ], [ -86.209459831448314, 12.122963592485146 ], [ -86.209692584938438, 12.122430299069821 ], [ -86.209740914300724, 12.122041394701418 ], [ -86.209658269294593, 12.121465326868087 ], [ -86.208769835478591, 12.119887128256842 ], [ -86.208619726994613, 12.119702950316027 ], [ -86.208465935417962, 12.119601156158756 ], [ -86.208316725249276, 12.11955899808398 ], [ -86.20395118246303, 12.11886540896824 ], [ -86.201753364288905, 12.117405589896551 ], [ -86.203533286192865, 12.113057967596486 ] ] } },
{ "type": "Feature", "properties": { "name": "Parque Independencia" }, "geometry": { "type": "Point", "coordinates": [ -86.296960950350211, 12.123127919012695 ] } },
{ "type": "Feature", "properties": { "name": "Colegio La Senda" }, "geometry": { "type": "Point", "coordinates": [ -86.295657584704486, 12.125015163718217 ] } },
{ "type": "Feature", "properties": { "name": "El Zumen" }, "geometry": { "type": "Point", "coordinates": [ -86.296396269362631, 12.125815007861492 ] } },
{ "type": "Feature", "properties": { "name": "Mercado Israel Lewites Sur" }, "geometry": { "type": "Point", "coordinates": [ -86.299825408296684, 12.125399584552959 ] } },
{ "type": "Feature", "properties": { "name": "Centro Comercial Nejapa" }, "geometry": { "type": "Point", "coordinates": [ -86.304041291756576, 12.124486968411917 ] } },
{ "type": "Feature", "properties": { "name": "7 Sur" }, "geometry": { "type": "Point", "coordinates": [ -86.311117411081142, 12.12288419577281 ] } },
{ "type": "Feature", "properties": { "name": "Velez Páiz" }, "geometry": { "type": "Point", "coordinates": [ -86.3116016928508, 12.127502515679161 ] } },
{ "type": "Feature", "properties": { "name": "Asososca" }, "geometry": { "type": "Point", "coordinates": [ -86.310286469443312, 12.131002650726579 ] } },
{ "type": "Feature", "properties": { "name": "ENACAL" }, "geometry": { "type": "Point", "coordinates": [ -86.307471418837466, 12.14005792696109 ] } },
{ "type": "Feature", "properties": { "name": "Ferretería 35 Avenida" }, "geometry": { "type": "Point", "coordinates": [ -86.304850943322165, 12.143774552445791 ] } },
{ "type": "Feature", "properties": { "name": "Linda Vista Sur" }, "geometry": { "type": "Point", "coordinates": [ -86.304477603490085, 12.151619781539658 ] } },
{ "type": "Feature", "properties": { "name": "Semaforos de Linda Vista" }, "geometry": { "type": "Point", "coordinates": [ -86.304413104452692, 12.153135616873413 ] } },
{ "type": "Feature", "properties": { "name": "Policía Distrito I" }, "geometry": { "type": "Point", "coordinates": [ -86.304251317870026, 12.156260347911337 ] } },
{ "type": "Feature", "properties": { "name": "Talleres Pellas" }, "geometry": { "type": "Point", "coordinates": [ -86.300069121233278, 12.157947926270554 ] } },
{ "type": "Feature", "properties": { "name": "Cuadro Gadala María" }, "geometry": { "type": "Point", "coordinates": [ -86.295634138675567, 12.157796969366817 ] } },
{ "type": "Feature", "properties": { "name": "Mercado Oriental II" }, "geometry": { "type": "Point", "coordinates": [ -86.292335435120762, 12.157614486154118 ] } },
{ "type": "Feature", "properties": { "name": "Iglesia Santa Ana Norte" }, "geometry": { "type": "Point", "coordinates": [ -86.28955991038741, 12.157484517283359 ] } },
{ "type": "Feature", "properties": { "name": "Palí" }, "geometry": { "type": "Point", "coordinates": [ -86.286783397507236, 12.157398281146211 ] } },
{ "type": "Feature", "properties": { "name": "Ferretería El Serrucho" }, "geometry": { "type": "Point", "coordinates": [ -86.283897200330898, 12.157230023999775 ] } },
{ "type": "Feature", "properties": { "name": "Santa Ana" }, "geometry": { "type": "Point", "coordinates": [ -86.282168572229679, 12.157047979482929 ] } },
{ "type": "Feature", "properties": { "name": "MITRAB" }, "geometry": { "type": "Point", "coordinates": [ -86.28160371157901, 12.15465337556161 ] } },
{ "type": "Feature", "properties": { "name": "Cafetín Doña Chepita" }, "geometry": { "type": "Point", "coordinates": [ -86.278517279925836, 12.154527532680717 ] } },
{ "type": "Feature", "properties": { "name": "Cancillería" }, "geometry": { "type": "Point", "coordinates": [ -86.272905773840534, 12.153960053437178 ] } },
{ "type": "Feature", "properties": { "name": "Instituto Loyola" }, "geometry": { "type": "Point", "coordinates": [ -86.266712249282648, 12.153696774974085 ] } },
{ "type": "Feature", "properties": { "name": "Iglesia Santo Domingo" }, "geometry": { "type": "Point", "coordinates": [ -86.263264874548312, 12.153610098518453 ] } },
{ "type": "Feature", "properties": { "name": "ENABAS" }, "geometry": { "type": "Point", "coordinates": [ -86.25915211768303, 12.153638200310599 ] } },
{ "type": "Feature", "properties": { "name": "Planta Eléctrica" }, "geometry": { "type": "Point", "coordinates": [ -86.257342820869283, 12.15348627496142 ] } },
{ "type": "Feature", "properties": { "name": "Quinta Nina" }, "geometry": { "type": "Point", "coordinates": [ -86.254784598603152, 12.153266202596559 ] } },
{ "type": "Feature", "properties": { "name": "Ferretería El Halcón" }, "geometry": { "type": "Point", "coordinates": [ -86.248279987462382, 12.152683088985857 ] } },
{ "type": "Feature", "properties": { "name": "Súper de los Militares" }, "geometry": { "type": "Point", "coordinates": [ -86.246098069468786, 12.152493401150263 ] } },
{ "type": "Feature", "properties": { "name": "Lácteos Calibri" }, "geometry": { "type": "Point", "coordinates": [ -86.242723278609404, 12.15207046704476 ] } },
{ "type": "Feature", "properties": { "name": "Palí San Luis" }, "geometry": { "type": "Point", "coordinates": [ -86.24128300971438, 12.151949979880047 ] } },
{ "type": "Feature", "properties": { "name": "RARPE" }, "geometry": { "type": "Point", "coordinates": [ -86.236080326914873, 12.151482257322765 ] } },
{ "type": "Feature", "properties": { "name": "Futec" }, "geometry": { "type": "Point", "coordinates": [ -86.232584982144346, 12.15114108103719 ] } },
{ "type": "Feature", "properties": { "name": "Iglesia Adventista" }, "geometry": { "type": "Point", "coordinates": [ -86.230672199409881, 12.150951831197244 ] } },
{ "type": "Feature", "properties": { "name": "Casa de las Mangueras" }, "geometry": { "type": "Point", "coordinates": [ -86.225133097536471, 12.150439319121972 ] } },
{ "type": "Feature", "properties": { "name": "Enacal" }, "geometry": { "type": "Point", "coordinates": [ -86.22071653044209, 12.150057832453934 ] } },
{ "type": "Feature", "properties": { "name": "Agri corp" }, "geometry": { "type": "Point", "coordinates": [ -86.217439566117164, 12.149772595287763 ] } },
{ "type": "Feature", "properties": { "name": "Pista Buenos Aires" }, "geometry": { "type": "Point", "coordinates": [ -86.21464868019244, 12.148931196558182 ] } },
{ "type": "Feature", "properties": { "name": "Miguel Gutierrez" }, "geometry": { "type": "Point", "coordinates": [ -86.215365176463081, 12.141563465126994 ] } },
{ "type": "Feature", "properties": { "name": "Rafaela Herrera" }, "geometry": { "type": "Point", "coordinates": [ -86.216655786031779, 12.137681788745653 ] } },
{ "type": "Feature", "properties": { "name": "Colegio Miguel Larreynaga" }, "geometry": { "type": "Point", "coordinates": [ -86.217192709077082, 12.135412950417431 ] } },
{ "type": "Feature", "properties": { "name": "El Contil" }, "geometry": { "type": "Point", "coordinates": [ -86.217405609799414, 12.131652207781924 ] } },
{ "type": "Feature", "properties": { "name": "Semáforo Iván Montenegro" }, "geometry": { "type": "Point", "coordinates": [ -86.21503118284042, 12.127684053434679 ] } },
{ "type": "Feature", "properties": { "name": "Colegio Villa Venezuela Oeste" }, "geometry": { "type": "Point", "coordinates": [ -86.21559496551275, 12.12419362370952 ] } },
{ "type": "Feature", "properties": { "name": "Colegio Villa Venezuela Sur" }, "geometry": { "type": "Point", "coordinates": [ -86.213627205882887, 12.123589104252899 ] } },
{ "type": "Feature", "properties": { "name": "Madre de Dios" }, "geometry": { "type": "Point", "coordinates": [ -86.21017560906671, 12.123057480823546 ] } },
{ "type": "Feature", "properties": { "name": "La Chelita" }, "geometry": { "type": "Point", "coordinates": [ -86.209168417970162, 12.120497277160128 ] } },
{ "type": "Feature", "properties": { "name": "Miscelánea La Unión" }, "geometry": { "type": "Point", "coordinates": [ -86.207900625609668, 12.119435685677008 ] } },
{ "type": "Feature", "properties": { "name": "La Sabana" }, "geometry": { "type": "Point", "coordinates": [ -86.205772426870055, 12.119095610139691 ] } },
{ "type": "Feature", "properties": { "name": "Ixchen" }, "geometry": { "type": "Point", "coordinates": [ -86.202756602798232, 12.118008103278319 ] } },
{ "type": "Feature", "properties": { "name": "Terminal 116" }, "geometry": { "type": "Point", "coordinates": [ -86.203582783365036, 12.113080276788637 ] } },
{ "type": "Feature", "properties": { "name": "Universidad Paulo Freire" }, "geometry": { "type": "Point", "coordinates": [ -86.304737036944147, 12.145839224388329 ] } }
]
}
