{
"type": "FeatureCollection",
"features": [
{ "type": "Feature", "properties": { "name": "Ruta 113: Ciudad Sandino (Trinidad) -> Mercado Oriental", "attributes": { "operator": "Cooperativa Pedro Joaquín Chamorro", "to": "Mercado Oriental", "ref": "113", "network": "IRTRAMMA", "from": "Cuidad Sandino (Trinidad)" } }, "geometry": { "type": "LineString", "coordinates": [ [ -86.370554980844062, 12.156671771316697 ], [ -86.370209039628136, 12.157433671336225 ], [ -86.372058311472045, 12.158236579518084 ], [ -86.371319536982384, 12.159862674115635 ], [ -86.368506103344032, 12.158646858252588 ], [ -86.368326709781812, 12.158550172332133 ], [ -86.36793827825295, 12.158199872186065 ], [ -86.36755865021388, 12.158075348232561 ], [ -86.366392097985923, 12.157828319935017 ], [ -86.365153680535229, 12.158588460312108 ], [ -86.364738928368567, 12.158720975319493 ], [ -86.364061868138918, 12.159229080627098 ], [ -86.362860820604041, 12.159768359671187 ], [ -86.362626180651844, 12.160032246836176 ], [ -86.364764799848743, 12.161975958737019 ], [ -86.364890294493932, 12.16402670252584 ], [ -86.365171826503982, 12.165421283566824 ], [ -86.361673696956075, 12.165346729296711 ], [ -86.361654473009011, 12.165668129181169 ], [ -86.361837998821557, 12.166079098958988 ], [ -86.359537503210447, 12.167092558252799 ], [ -86.358397091957244, 12.167684948491031 ], [ -86.357805371679618, 12.165536407964051 ], [ -86.355932384312212, 12.165742595547021 ], [ -86.355305809401543, 12.165977498156389 ], [ -86.354250109279661, 12.166480847646747 ], [ -86.350490929310197, 12.168360496553589 ], [ -86.349490565409809, 12.166452659397976 ], [ -86.349001522569139, 12.165411184933113 ], [ -86.348701934421868, 12.164870775748421 ], [ -86.34708586522575, 12.165688677685154 ], [ -86.347371709149144, 12.166233827159385 ], [ -86.345362177858576, 12.16723990952053 ], [ -86.343229128216436, 12.168580995490935 ], [ -86.342896032909081, 12.168695064761856 ], [ -86.34279272665141, 12.168591884322602 ], [ -86.342076320212328, 12.167203993754224 ], [ -86.341817515578967, 12.166827624331706 ], [ -86.340418748850055, 12.163838164372597 ], [ -86.340068046563147, 12.163002869371526 ], [ -86.339642784107653, 12.161854422274914 ], [ -86.338461948666662, 12.157481092427119 ], [ -86.338147628148761, 12.156139511375123 ], [ -86.337285065812935, 12.152946104997097 ], [ -86.33448106448509, 12.141987118502012 ], [ -86.334297179346436, 12.141378599585281 ], [ -86.334160365928653, 12.141040132840482 ], [ -86.333975133317082, 12.140751724408199 ], [ -86.333755674893169, 12.140484305226485 ], [ -86.333359607684415, 12.140144432184449 ], [ -86.330347197210614, 12.138405803536974 ], [ -86.329651811349194, 12.137975294251195 ], [ -86.329235442214994, 12.137677924517805 ], [ -86.3285888348735, 12.137178472597292 ], [ -86.326363079094023, 12.135144471986127 ], [ -86.325851488539726, 12.1347363526357 ], [ -86.325597894135015, 12.134595658021405 ], [ -86.320981002732282, 12.132620216994985 ], [ -86.320695967292636, 12.132528264175122 ], [ -86.320344097195843, 12.132468367478841 ], [ -86.319138647916091, 12.132398722183106 ], [ -86.318897719756876, 12.132355512230083 ], [ -86.317669363437389, 12.131950111191323 ], [ -86.317310306818314, 12.131867906746038 ], [ -86.316841476071531, 12.131902773378178 ], [ -86.316385581064836, 12.131991916006319 ], [ -86.314869404528309, 12.13237219900139 ], [ -86.314310832084644, 12.132398722183106 ], [ -86.313990223359738, 12.132341548036431 ], [ -86.313634041349587, 12.132216221561414 ], [ -86.313434525524983, 12.132103366205889 ], [ -86.313129547486028, 12.131860968549187 ], [ -86.312059384488052, 12.13047148120636 ], [ -86.311572767098639, 12.130034811290853 ], [ -86.311423017940783, 12.129948566263176 ], [ -86.31098751469105, 12.129825697789631 ], [ -86.310906306989352, 12.129828947349703 ], [ -86.310757725641366, 12.129950586259064 ], [ -86.310560725099549, 12.130738032180904 ], [ -86.308631862521494, 12.135884565456319 ], [ -86.308135363663965, 12.136698867893635 ], [ -86.307825085564829, 12.137048230277351 ], [ -86.307548584120369, 12.137286583335053 ], [ -86.306932699161578, 12.137612583929426 ], [ -86.306179641458911, 12.137867008146314 ], [ -86.298576839883296, 12.139138949940092 ], [ -86.297966165153156, 12.139365269403227 ], [ -86.297482332541108, 12.139672912509454 ], [ -86.29368542332972, 12.142586414745505 ], [ -86.293105111656189, 12.142728158999789 ], [ -86.292641580969587, 12.142979855860148 ], [ -86.287894164356061, 12.146611869516162 ], [ -86.287660063393034, 12.146456251696224 ], [ -86.287421381022043, 12.146363601088668 ], [ -86.287155389866399, 12.146305024811127 ], [ -86.28327646446958, 12.145993876542159 ], [ -86.279397898398869, 12.145601405909455 ], [ -86.278031021862546, 12.145318798593001 ], [ -86.27569773774357, 12.144900595419513 ], [ -86.275548437743353, 12.145732785715783 ], [ -86.275318469030623, 12.1458526609504 ], [ -86.275153448512938, 12.145893058453202 ], [ -86.27500513665953, 12.145861091734108 ], [ -86.274859789246563, 12.145721895948205 ], [ -86.274684438103094, 12.14565076116515 ], [ -86.274588498030738, 12.145656557333375 ], [ -86.27444934899323, 12.145723828003778 ], [ -86.274189735876121, 12.145672013781349 ], [ -86.27383759628475, 12.145392831551689 ], [ -86.273601968185716, 12.145296492098444 ], [ -86.273213536656868, 12.145223864246907 ], [ -86.272866607294148, 12.145219912307629 ], [ -86.272744975404677, 12.145260924652465 ], [ -86.272445836415073, 12.145429101546485 ], [ -86.272300399170561, 12.145564433372062 ], [ -86.272121364934435, 12.145637148951426 ], [ -86.271568451877073, 12.145631616244998 ], [ -86.271052100251751, 12.145496899199051 ], [ -86.270760237615931, 12.145353575643774 ], [ -86.270500175341184, 12.145119796492832 ], [ -86.270343329492576, 12.144878727994854 ], [ -86.27018962774747, 12.144780719756207 ], [ -86.267895510174881, 12.144352679767843 ], [ -86.265626635261796, 12.14397241387473 ], [ -86.264098870458085, 12.144121007447719 ], [ -86.263596263056613, 12.144063923638123 ], [ -86.263221126593962, 12.145502871012184 ], [ -86.26336261125121, 12.145499709464065 ] ] } },
{ "type": "Feature", "properties": { "name": "Terminal", "attributes": { "official_status": "none" } }, "geometry": { "type": "Point", "coordinates": [ -86.370527582227908, 12.156653680994635 ] } },
{ "type": "Feature", "properties": { "name": "Colegio Nueva Vida", "attributes": { "official_status": "none" } }, "geometry": { "type": "Point", "coordinates": [ -86.371821605394658, 12.158653795751436 ] } },
{ "type": "Feature", "properties": { "name": "Redes de Solidaridad", "attributes": { "official_status": "none" } }, "geometry": { "type": "Point", "coordinates": [ -86.367961544618808, 12.158174668823603 ] } },
{ "type": "Feature", "properties": { "name": "Pulpería Duarte", "attributes": { "official_status": "none" } }, "geometry": { "type": "Point", "coordinates": [ -86.364179906767248, 12.159125808697116 ] } },
{ "type": "Feature", "properties": { "name": "Pulpería Romero", "attributes": { "official_status": "none" } }, "geometry": { "type": "Point", "coordinates": [ -86.362841327162386, 12.160305354408347 ] } },
{ "type": "Feature", "properties": { "name": "Centro Comercial Francisco", "attributes": { "official_status": "none" } }, "geometry": { "type": "Point", "coordinates": [ -86.36481214106422, 12.163748066446843 ] } },
{ "type": "Feature", "properties": { "name": "Casa del Zinc", "attributes": { "official_status": "none" } }, "geometry": { "type": "Point", "coordinates": [ -86.364365588536472, 12.165362184600603 ] } },
{ "type": "Feature", "properties": { "name": "La Palmera", "attributes": { "official_status": "none" } }, "geometry": { "type": "Point", "coordinates": [ -86.362680618558059, 12.165305280977304 ] } },
{ "type": "Feature", "properties": { "name": "Iglesia San José", "attributes": { "official_status": "none" } }, "geometry": { "type": "Point", "coordinates": [ -86.361666600265337, 12.166101228082839 ] } },
{ "type": "Feature", "properties": { "name": "Puente de la Zona#5", "attributes": { "official_status": "unset" } }, "geometry": { "type": "Point", "coordinates": [ -86.360680070420315, 12.166508421195605 ] } },
{ "type": "Feature", "properties": { "name": "Los Masayas", "attributes": { "official_status": "none" } }, "geometry": { "type": "Point", "coordinates": [ -86.359406888168124, 12.167077454304172 ] } },
{ "type": "Feature", "properties": { "name": "Vuelta de la Uno", "attributes": { "official_status": "none" } }, "geometry": { "type": "Point", "coordinates": [ -86.358668473004599, 12.167505106471143 ] } },
{ "type": "Feature", "properties": { "name": "Alcaldía de Ciudad Sandino", "attributes": { "official_status": "none" } }, "geometry": { "type": "Point", "coordinates": [ -86.357086000800095, 12.165573026468966 ] } },
{ "type": "Feature", "properties": { "name": "Palí", "attributes": { "official_status": "unset" } }, "geometry": { "type": "Point", "coordinates": [ -86.35565660152001, 12.165778248068575 ] } },
{ "type": "Feature", "properties": { "name": "Iglesia San Francisco", "attributes": { "official_status": "none" } }, "geometry": { "type": "Point", "coordinates": [ -86.354605213311459, 12.166243223250371 ] } },
{ "type": "Feature", "properties": { "name": "Farmacia Nefi", "attributes": { "official_status": "none" } }, "geometry": { "type": "Point", "coordinates": [ -86.353203122815998, 12.166932473916413 ] } },
{ "type": "Feature", "properties": { "name": "El Gallo Más Gallo", "attributes": { "official_status": "none" } }, "geometry": { "type": "Point", "coordinates": [ -86.352096847543621, 12.167482274955999 ] } },
{ "type": "Feature", "properties": { "name": "Pinar del Río", "attributes": { "official_status": "none" } }, "geometry": { "type": "Point", "coordinates": [ -86.350302103437471, 12.167889817206191 ] } },
{ "type": "Feature", "properties": { "name": "Plaza Padre Miguel", "attributes": { "official_status": "none" } }, "geometry": { "type": "Point", "coordinates": [ -86.349001432737595, 12.165308003218826 ] } },
{ "type": "Feature", "properties": { "name": "San Benito", "attributes": { "official_status": "none" } }, "geometry": { "type": "Point", "coordinates": [ -86.34585526311804, 12.16693352768087 ] } },
{ "type": "Feature", "properties": { "name": "Entrada a Ciudad Sandino", "attributes": { "official_status": "none" } }, "geometry": { "type": "Point", "coordinates": [ -86.343545964017139, 12.168299817602442 ] } },
{ "type": "Feature", "properties": { "name": "Cuesta El Plomo Norte", "attributes": { "official_status": "none" } }, "geometry": { "type": "Point", "coordinates": [ -86.33824329872651, 12.15610754588689 ] } },
{ "type": "Feature", "properties": { "name": "Chilamate", "attributes": { "official_status": "none" } }, "geometry": { "type": "Point", "coordinates": [ -86.336504968820208, 12.149714810134956 ] } },
{ "type": "Feature", "properties": { "name": "Diinsa", "attributes": { "official_status": "none" } }, "geometry": { "type": "Point", "coordinates": [ -86.335917380792864, 12.146929603586129 ] } },
{ "type": "Feature", "properties": { "name": "Satelite de Asososca", "attributes": { "official_status": "none" } }, "geometry": { "type": "Point", "coordinates": [ -86.335211843968722, 12.144513128978289 ] } },
{ "type": "Feature", "properties": { "name": "KM 9", "attributes": { "official_status": "none" } }, "geometry": { "type": "Point", "coordinates": [ -86.332486445228227, 12.139543725282032 ] } },
{ "type": "Feature", "properties": { "name": "Las Piedrecitas", "attributes": { "official_status": "none" } }, "geometry": { "type": "Point", "coordinates": [ -86.312225213489512, 12.130556057376399 ] } },
{ "type": "Feature", "properties": { "name": "Asososca", "attributes": { "official_status": "IRTRAMMA:bus_stop" } }, "geometry": { "type": "Point", "coordinates": [ -86.310286469443312, 12.131002650726579 ] } },
{ "type": "Feature", "properties": { "name": "Aldea SOS", "attributes": { "official_status": "IRTRAMMA:bus_stop" } }, "geometry": { "type": "Point", "coordinates": [ -86.30452692099918, 12.138041425159779 ] } },
{ "type": "Feature", "properties": { "name": "INVUR", "attributes": { "official_status": "none" } }, "geometry": { "type": "Point", "coordinates": [ -86.300134967743588, 12.138747610903645 ] } },
{ "type": "Feature", "properties": { "name": "Taller El Pelón", "attributes": { "official_status": "IRTRAMMA:bus_stop" } }, "geometry": { "type": "Point", "coordinates": [ -86.297075665211992, 12.139919869835772 ] } },
{ "type": "Feature", "properties": { "name": "Autostar", "attributes": { "official_status": "IRTRAMMA:bus_stop" } }, "geometry": { "type": "Point", "coordinates": [ -86.294176981453191, 12.142143529331035 ] } },
{ "type": "Feature", "properties": { "name": "Maquipos", "attributes": { "official_status": "IRTRAMMA:bus_stop" } }, "geometry": { "type": "Point", "coordinates": [ -86.292290070198902, 12.143179825596727 ] } },
{ "type": "Feature", "properties": { "name": "Fósforera", "attributes": { "official_status": "IRTRAMMA:bus_stop" } }, "geometry": { "type": "Point", "coordinates": [ -86.291217391918138, 12.144024316249183 ] } },
{ "type": "Feature", "properties": { "name": "Budget", "attributes": { "official_status": "none" } }, "geometry": { "type": "Point", "coordinates": [ -86.289506191133427, 12.145337328789807 ] } },
{ "type": "Feature", "properties": { "name": "Estátua de Montoya", "attributes": { "official_status": "IRTRAMMA:bus_stop" } }, "geometry": { "type": "Point", "coordinates": [ -86.287575981082426, 12.146383272879129 ] } },
{ "type": "Feature", "properties": { "name": "27 De Mayo", "attributes": { "official_status": "IRTRAMMA:bus_stop" } }, "geometry": { "type": "Point", "coordinates": [ -86.282141532939633, 12.145823416667376 ] } },
{ "type": "Feature", "properties": { "name": "Mangueras", "attributes": { "official_status": "IRTRAMMA:bus_stop" } }, "geometry": { "type": "Point", "coordinates": [ -86.279159844848579, 12.145489961357162 ] } },
{ "type": "Feature", "properties": { "name": "Central Line", "attributes": { "official_status": "IRTRAMMA:bus_stop" } }, "geometry": { "type": "Point", "coordinates": [ -86.276137822401267, 12.144917808330833 ] } },
{ "type": "Feature", "properties": { "name": "Plaza Inter", "attributes": { "official_status": "IRTRAMMA:bus_stop" } }, "geometry": { "type": "Point", "coordinates": [ -86.273874786537519, 12.145336889685634 ] } },
{ "type": "Feature", "properties": { "name": "Barracudas", "attributes": { "official_status": "IRTRAMMA:bus_stop" } }, "geometry": { "type": "Point", "coordinates": [ -86.271916549049664, 12.145599210390751 ] } },
{ "type": "Feature", "properties": { "name": "El Redentor", "attributes": { "official_status": "IRTRAMMA:bus_stop" } }, "geometry": { "type": "Point", "coordinates": [ -86.267135176118416, 12.144169396944424 ] } },
{ "type": "Feature", "properties": { "name": "El Panal", "attributes": { "official_status": "none" } }, "geometry": { "type": "Point", "coordinates": [ -86.263352190793924, 12.145596400126792 ] } }
]
}
