{
"type": "FeatureCollection",
"features": [
{ "type": "Feature", "properties": { "name": null }, "geometry": { "type": "LineString", "coordinates": [ [ -86.188680900611359, 12.162407219535366 ], [ -86.188423084124807, 12.162390622461997 ], [ -86.188045522210899, 12.160762874825094 ], [ -86.187908169803961, 12.158791052811607 ], [ -86.188105619503403, 12.157540895679681 ], [ -86.188302799708268, 12.156807009607643 ], [ -86.188460993029807, 12.156458726960411 ], [ -86.18882543954058, 12.155356794895056 ], [ -86.188972493752573, 12.153488206960635 ], [ -86.189076877988597, 12.152648927621744 ], [ -86.189431263368178, 12.148619085341691 ], [ -86.189633294475584, 12.147994598350859 ], [ -86.189708034307216, 12.147468292820498 ], [ -86.195209945927871, 12.148036576287618 ], [ -86.212117048058758, 12.149591160404132 ], [ -86.214879816715055, 12.149805351911366 ], [ -86.221072622620724, 12.150366253577806 ], [ -86.221661737784061, 12.150393214063374 ], [ -86.221863589228377, 12.150476554439654 ], [ -86.223428993442496, 12.150659657282151 ], [ -86.223581886703855, 12.150690569596124 ], [ -86.223754812396052, 12.150812989349726 ], [ -86.223981277679158, 12.150857952688426 ], [ -86.224548384118037, 12.150797357562237 ], [ -86.225672985022229, 12.150865066028409 ], [ -86.226010571906002, 12.15086778841774 ], [ -86.22615762611801, 12.150833099906444 ], [ -86.238761708206425, 12.151984931701666 ], [ -86.238752814885132, 12.151874016734311 ], [ -86.238925381251192, 12.151032449010957 ], [ -86.239020063682162, 12.150831167887969 ], [ -86.239584834501272, 12.150082509669767 ], [ -86.239834925476373, 12.149814924221518 ], [ -86.240440389977877, 12.14933051220382 ], [ -86.240707369280315, 12.149067404799329 ], [ -86.240849662421311, 12.148881929730379 ], [ -86.24105483763222, 12.148450559183775 ], [ -86.241131284262892, 12.148097172042387 ], [ -86.241287680953846, 12.145593150759041 ], [ -86.241374368378771, 12.144972872075408 ], [ -86.241536514287546, 12.144296825504403 ], [ -86.242298644974596, 12.141627663059449 ], [ -86.242459443410453, 12.140940191098766 ], [ -86.242650515071375, 12.140637555332273 ], [ -86.242914440101856, 12.140484919983534 ], [ -86.244504368323234, 12.139999876232006 ], [ -86.248169404850913, 12.138811809514792 ], [ -86.249542030605042, 12.138213558656291 ], [ -86.250509336502972, 12.137680647041977 ], [ -86.252299050043533, 12.136623690810003 ], [ -86.252887177060046, 12.136252459736683 ], [ -86.253258271103903, 12.135970896387013 ], [ -86.254300496496555, 12.135313621333545 ], [ -86.254732047159038, 12.134962500190287 ], [ -86.256011876944328, 12.133611408414302 ], [ -86.25637964722165, 12.133351095873243 ], [ -86.256827008233131, 12.133088850930706 ], [ -86.257162708654818, 12.13295421536599 ], [ -86.257339407271189, 12.132911971577263 ], [ -86.257524999208897, 12.132932873910157 ], [ -86.257746613589489, 12.132857256639296 ], [ -86.25784354180864, 12.13278901664474 ], [ -86.257914149389975, 12.13265227312816 ], [ -86.25815956912561, 12.132438155650398 ], [ -86.258991139584111, 12.131989017773561 ], [ -86.260627690368722, 12.131398480234663 ], [ -86.262175397771728, 12.130518819273682 ], [ -86.262529064499077, 12.130339830396048 ], [ -86.262883629541719, 12.130206862133386 ], [ -86.264227239712184, 12.129746917902226 ], [ -86.265652327078911, 12.129383054641966 ], [ -86.265856064985357, 12.129396052903603 ], [ -86.266301000545567, 12.129550011994899 ], [ -86.266539413421981, 12.129507504188506 ], [ -86.266692216851808, 12.129389378120687 ], [ -86.266875024012123, 12.12908137183744 ], [ -86.267047500546681, 12.128952179475277 ], [ -86.267503395553376, 12.128749388618719 ], [ -86.268511844291325, 12.12840800756033 ], [ -86.269437468360081, 12.127987494351402 ], [ -86.27359792576695, 12.125419784855644 ], [ -86.274666112471294, 12.124804992349025 ], [ -86.275237081665892, 12.124553453977756 ], [ -86.27609281680553, 12.124286106370583 ], [ -86.276365814820366, 12.124258528448411 ], [ -86.276868871379477, 12.124271790443194 ], [ -86.277367795688278, 12.124348288426656 ], [ -86.278827108867333, 12.124756511508215 ], [ -86.28175974894387, 12.12523517159755 ], [ -86.281863145033086, 12.125286989794223 ], [ -86.282618448523962, 12.125447977449472 ], [ -86.282772779089782, 12.125507875723015 ], [ -86.282863778428066, 12.12562275389914 ], [ -86.28329829353099, 12.125715763028438 ], [ -86.283453971569713, 12.125716202164952 ], [ -86.283600666455612, 12.125649453407005 ], [ -86.283940049969956, 12.125640055883155 ], [ -86.28635975201928, 12.125862785891851 ], [ -86.288749989327258, 12.125999796372614 ], [ -86.29184261935589, 12.126032468092252 ], [ -86.292547437527801, 12.126014287861647 ], [ -86.294094965267774, 12.125953511429616 ], [ -86.2963949218897, 12.125758271439329 ], [ -86.29789546774029, 12.125576117581325 ], [ -86.300936444640087, 12.125123455044388 ], [ -86.302536883150282, 12.124788305104081 ], [ -86.304085129542457, 12.12442136110678 ], [ -86.305886072024052, 12.123924255700137 ], [ -86.308547241221717, 12.123080316148751 ], [ -86.30957176980327, 12.122843267812314 ], [ -86.310229067096657, 12.122787760353706 ], [ -86.310603035749438, 12.122788023838503 ], [ -86.3110942345468, 12.122835363269862 ], [ -86.311778121972594, 12.12296148460814 ], [ -86.312690630638201, 12.123261593430248 ], [ -86.312914041649378, 12.123584800680732 ], [ -86.31298069664345, 12.123774157790113 ], [ -86.311688649770289, 12.127546780339218 ], [ -86.311248834607184, 12.128746753829626 ], [ -86.310908193451453, 12.129467982461598 ], [ -86.31063896836082, 12.130354409474975 ], [ -86.310560725099549, 12.130738032180904 ], [ -86.309320241523707, 12.134082763168006 ], [ -86.308631862521494, 12.135884565456319 ], [ -86.308387700427275, 12.136311828639556 ], [ -86.308135363663965, 12.136698867893635 ], [ -86.307825085564829, 12.137048230277351 ], [ -86.307345475034637, 12.137469080484191 ], [ -86.307345385203107, 12.137549790203721 ], [ -86.307652788693346, 12.137902664403059 ], [ -86.307714592784876, 12.13806935294892 ], [ -86.307763191641754, 12.138591110257309 ], [ -86.307729235324018, 12.139444573383818 ], [ -86.307609489896635, 12.13992145064296 ], [ -86.307405302832564, 12.140381201667319 ], [ -86.307203990377388, 12.140694552053981 ], [ -86.305218264441834, 12.143343876195139 ], [ -86.305036445428343, 12.143616210503948 ], [ -86.304911220277731, 12.143926746802544 ], [ -86.304510571661012, 12.152750270061869 ], [ -86.304899811673621, 12.152681771709684 ], [ -86.310888520346737, 12.151201676085112 ], [ -86.31374731890692, 12.150542945700698 ], [ -86.316941189068061, 12.149708926235713 ] ] } },
{ "type": "Feature", "properties": { "name": "Terminal 114" }, "geometry": { "type": "Point", "coordinates": [ -86.188687817639035, 12.162369019920499 ] } },
{ "type": "Feature", "properties": { "name": "Cancha Benito Escobar" }, "geometry": { "type": "Point", "coordinates": [ -86.188314477806955, 12.161827199504826 ] } },
{ "type": "Feature", "properties": { "name": "Colegio Las Américas" }, "geometry": { "type": "Point", "coordinates": [ -86.188033484786089, 12.159913431782327 ] } },
{ "type": "Feature", "properties": { "name": "El Molino" }, "geometry": { "type": "Point", "coordinates": [ -86.188265339960935, 12.15716512729532 ] } },
{ "type": "Feature", "properties": { "name": "Transagro" }, "geometry": { "type": "Point", "coordinates": [ -86.18890979134575, 12.15492367849181 ] } },
{ "type": "Feature", "properties": { "name": "Palí Las Mercedes" }, "geometry": { "type": "Point", "coordinates": [ -86.189217733825146, 12.151519492494513 ] } },
{ "type": "Feature", "properties": { "name": "Entrada a Las Mercedes" }, "geometry": { "type": "Point", "coordinates": [ -86.190031607472548, 12.14762048506563 ] } },
{ "type": "Feature", "properties": { "name": "Subasta" }, "geometry": { "type": "Point", "coordinates": [ -86.193191521315967, 12.147909500797681 ] } },
{ "type": "Feature", "properties": { "name": "Veterinaria Antares" }, "geometry": { "type": "Point", "coordinates": [ -86.197413692982863, 12.148280803441063 ] } },
{ "type": "Feature", "properties": { "name": "La Rocargo" }, "geometry": { "type": "Point", "coordinates": [ -86.199881993889051, 12.148561212118677 ] } },
{ "type": "Feature", "properties": { "name": "Entrada Barrio Hugo Chávez" }, "geometry": { "type": "Point", "coordinates": [ -86.202528251052996, 12.148794724788234 ] } },
{ "type": "Feature", "properties": { "name": "Gasolinera Waspam" }, "geometry": { "type": "Point", "coordinates": [ -86.208234080243145, 12.149303288152007 ] } },
{ "type": "Feature", "properties": { "name": "Ecasa" }, "geometry": { "type": "Point", "coordinates": [ -86.211895164183574, 12.149634982296844 ] } },
{ "type": "Feature", "properties": { "name": "Siemens" }, "geometry": { "type": "Point", "coordinates": [ -86.217424384588853, 12.150111314388557 ] } },
{ "type": "Feature", "properties": { "name": "La Danto" }, "geometry": { "type": "Point", "coordinates": [ -86.220067946806978, 12.150356856925834 ] } },
{ "type": "Feature", "properties": { "name": "Sucursal Norte - DISSUR" }, "geometry": { "type": "Point", "coordinates": [ -86.223262086462725, 12.15068038258396 ] } },
{ "type": "Feature", "properties": { "name": "Nabisco" }, "geometry": { "type": "Point", "coordinates": [ -86.226015871966169, 12.150879292707831 ] } },
{ "type": "Feature", "properties": { "name": "Grupo Q" }, "geometry": { "type": "Point", "coordinates": [ -86.231053534247991, 12.151340693367537 ] } },
{ "type": "Feature", "properties": { "name": "Bar El Trebol" }, "geometry": { "type": "Point", "coordinates": [ -86.236133507179687, 12.151827560649521 ] } },
{ "type": "Feature", "properties": { "name": "Blandón Moreno" }, "geometry": { "type": "Point", "coordinates": [ -86.24125264665777, 12.147237062312675 ] } },
{ "type": "Feature", "properties": { "name": "Iglesia de Dios" }, "geometry": { "type": "Point", "coordinates": [ -86.245640647326113, 12.139694780361603 ] } },
{ "type": "Feature", "properties": { "name": "Ignacio Loyola" }, "geometry": { "type": "Point", "coordinates": [ -86.249361648895984, 12.138400095034063 ] } },
{ "type": "Feature", "properties": { "name": "Bypass" }, "geometry": { "type": "Point", "coordinates": [ -86.254727286088041, 12.135068064924813 ] } },
{ "type": "Feature", "properties": { "name": "Plaza El Sol" }, "geometry": { "type": "Point", "coordinates": [ -86.261493576471068, 12.131039273982861 ] } },
{ "type": "Feature", "properties": { "name": "Catedral de Managua" }, "geometry": { "type": "Point", "coordinates": [ -86.265120883756836, 12.129621678033317 ] } },
{ "type": "Feature", "properties": { "name": "UCA" }, "geometry": { "type": "Point", "coordinates": [ -86.271601779374095, 12.126810264622815 ] } },
{ "type": "Feature", "properties": { "name": "ENEL Central" }, "geometry": { "type": "Point", "coordinates": [ -86.276817038587581, 12.124383156042146 ] } },
{ "type": "Feature", "properties": { "name": "Rotonda El Periodista" }, "geometry": { "type": "Point", "coordinates": [ -86.284594113328325, 12.125743165145323 ] } },
{ "type": "Feature", "properties": { "name": "Julio Martínez" }, "geometry": { "type": "Point", "coordinates": [ -86.288232110565957, 12.126064876326316 ] } },
{ "type": "Feature", "properties": { "name": "El Zumen" }, "geometry": { "type": "Point", "coordinates": [ -86.296396269362631, 12.125815007861492 ] } },
{ "type": "Feature", "properties": { "name": "Mercado Israel Lewites Sur" }, "geometry": { "type": "Point", "coordinates": [ -86.299825408296684, 12.125399584552959 ] } },
{ "type": "Feature", "properties": { "name": "Centro Comercial Nejapa" }, "geometry": { "type": "Point", "coordinates": [ -86.304041291756576, 12.124486968411917 ] } },
{ "type": "Feature", "properties": { "name": "7 Sur" }, "geometry": { "type": "Point", "coordinates": [ -86.311117411081142, 12.12288419577281 ] } },
{ "type": "Feature", "properties": { "name": "Velez Páiz" }, "geometry": { "type": "Point", "coordinates": [ -86.3116016928508, 12.127502515679161 ] } },
{ "type": "Feature", "properties": { "name": "Asososca" }, "geometry": { "type": "Point", "coordinates": [ -86.310286469443312, 12.131002650726579 ] } },
{ "type": "Feature", "properties": { "name": "ENACAL" }, "geometry": { "type": "Point", "coordinates": [ -86.307471418837466, 12.14005792696109 ] } },
{ "type": "Feature", "properties": { "name": "Ferretería 35 Avenida" }, "geometry": { "type": "Point", "coordinates": [ -86.304850943322165, 12.143774552445791 ] } },
{ "type": "Feature", "properties": { "name": "Universidad Paulo Freire" }, "geometry": { "type": "Point", "coordinates": [ -86.304737036944147, 12.145839224388329 ] } },
{ "type": "Feature", "properties": { "name": "Linda Vista Sur" }, "geometry": { "type": "Point", "coordinates": [ -86.304477603490085, 12.151619781539658 ] } },
{ "type": "Feature", "properties": { "name": "Centro Comercial Linda Vista" }, "geometry": { "type": "Point", "coordinates": [ -86.305971771302168, 12.152491381325374 ] } },
{ "type": "Feature", "properties": { "name": "Manuel Olivares" }, "geometry": { "type": "Point", "coordinates": [ -86.309127283400684, 12.151698818413758 ] } },
{ "type": "Feature", "properties": { "name": "Clínica Bethel" }, "geometry": { "type": "Point", "coordinates": [ -86.313224679074622, 12.150727980516759 ] } },
{ "type": "Feature", "properties": { "name": "Cuesta El Plomo Sur" }, "geometry": { "type": "Point", "coordinates": [ -86.316879025650408, 12.149818612634512 ] } }
]
}
