{
"type": "FeatureCollection",
"features": [
{ "type": "Feature", "properties": { "name": null }, "geometry": { "type": "LineString", "coordinates": [ [ -86.194553007960593, 12.134970580021706 ], [ -86.194632329200175, 12.133640214914685 ], [ -86.196577810610989, 12.133837205625039 ], [ -86.197038017531057, 12.13390281061308 ], [ -86.197460225714593, 12.134004511486284 ], [ -86.197822336605597, 12.134117805159431 ], [ -86.198023110071603, 12.134213797357999 ], [ -86.19937157114461, 12.135075003038192 ], [ -86.20453391958786, 12.138740585062894 ], [ -86.205170106472082, 12.139083445874755 ], [ -86.205739279036081, 12.139252329252804 ], [ -86.20624377289964, 12.139308272397061 ], [ -86.206234430420693, 12.139411200725984 ], [ -86.207727250759859, 12.139479878138346 ], [ -86.208753306477362, 12.139479878138346 ], [ -86.209292744805481, 12.139534328248088 ], [ -86.211079493905601, 12.139816590412796 ], [ -86.214357266714288, 12.140488784170671 ], [ -86.215327626884189, 12.140789224547845 ], [ -86.215103407389279, 12.142209395739119 ], [ -86.214918084946149, 12.142741859183928 ], [ -86.213759617555766, 12.144376567122208 ], [ -86.21354959144233, 12.144777206915441 ], [ -86.213529648843036, 12.144932825716847 ], [ -86.213608071767325, 12.14646749271561 ], [ -86.214733481155292, 12.14967573050323 ], [ -86.214879816715055, 12.149805351911366 ], [ -86.221072622620724, 12.150366253577806 ], [ -86.221661737784061, 12.150393214063374 ], [ -86.221863589228377, 12.150476554439654 ], [ -86.223428993442496, 12.150659657282151 ], [ -86.223581886703855, 12.150690569596124 ], [ -86.223754812396052, 12.150812989349726 ], [ -86.223981277679158, 12.150857952688426 ], [ -86.224548384118037, 12.150797357562237 ], [ -86.225672985022229, 12.150865066028409 ], [ -86.226010571906002, 12.15086778841774 ], [ -86.22615762611801, 12.150833099906444 ], [ -86.238761708206425, 12.151984931701666 ], [ -86.238752814885132, 12.151874016734311 ], [ -86.238925381251192, 12.151032449010957 ], [ -86.239020063682162, 12.150831167887969 ], [ -86.239584834501272, 12.150082509669767 ], [ -86.239834925476373, 12.149814924221518 ], [ -86.240440389977877, 12.14933051220382 ], [ -86.240707369280315, 12.149067404799329 ], [ -86.240849662421311, 12.148881929730379 ], [ -86.24105483763222, 12.148450559183775 ], [ -86.241131284262892, 12.148097172042387 ], [ -86.241287680953846, 12.145593150759041 ], [ -86.241374368378771, 12.144972872075408 ], [ -86.241536514287546, 12.144296825504403 ], [ -86.242298644974596, 12.141627663059449 ], [ -86.242459443410453, 12.140940191098766 ], [ -86.242650515071375, 12.140637555332273 ], [ -86.242914440101856, 12.140484919983534 ], [ -86.244504368323234, 12.139999876232006 ], [ -86.248169404850913, 12.138811809514792 ], [ -86.249542030605042, 12.138213558656291 ], [ -86.250509336502972, 12.137680647041977 ], [ -86.252299050043533, 12.136623690810003 ], [ -86.252887177060046, 12.136252459736683 ], [ -86.253258271103903, 12.135970896387013 ], [ -86.254300496496555, 12.135313621333545 ], [ -86.254732047159038, 12.134962500190287 ], [ -86.256011876944328, 12.133611408414302 ], [ -86.25637964722165, 12.133351095873243 ], [ -86.256827008233131, 12.133088850930706 ], [ -86.257162708654818, 12.13295421536599 ], [ -86.257339407271189, 12.132911971577263 ], [ -86.257524999208897, 12.132932873910157 ], [ -86.257746613589489, 12.132857256639296 ], [ -86.25784354180864, 12.13278901664474 ], [ -86.257914149389975, 12.13265227312816 ], [ -86.25815956912561, 12.132438155650398 ], [ -86.258991139584111, 12.131989017773561 ], [ -86.260627690368722, 12.131398480234663 ], [ -86.262175397771728, 12.130518819273682 ], [ -86.262529064499077, 12.130339830396048 ], [ -86.262883629541719, 12.130206862133386 ], [ -86.264227239712184, 12.129746917902226 ], [ -86.265652327078911, 12.129383054641966 ], [ -86.265856064985357, 12.129396052903603 ], [ -86.266301000545567, 12.129550011994899 ], [ -86.266539413421981, 12.129507504188506 ], [ -86.266692216851808, 12.129389378120687 ], [ -86.266875024012123, 12.12908137183744 ], [ -86.267047500546681, 12.128952179475277 ], [ -86.267503395553376, 12.128749388618719 ], [ -86.268511844291325, 12.12840800756033 ], [ -86.269437468360081, 12.127987494351402 ], [ -86.27359792576695, 12.125419784855644 ], [ -86.274666112471294, 12.124804992349025 ], [ -86.275237081665892, 12.124553453977756 ], [ -86.27609281680553, 12.124286106370583 ], [ -86.27670924075349, 12.124259494554019 ], [ -86.277085006036842, 12.124297260497533 ], [ -86.277556711392535, 12.12439220229933 ], [ -86.278827108867333, 12.124756511508215 ], [ -86.28175974894387, 12.12523517159755 ], [ -86.281863145033086, 12.125286989794223 ], [ -86.282618448523962, 12.125447977449472 ], [ -86.282772779089782, 12.125507875723015 ], [ -86.282863778428066, 12.12562275389914 ], [ -86.28329829353099, 12.125715763028438 ], [ -86.283453971569713, 12.125716202164952 ], [ -86.283600666455612, 12.125649453407005 ], [ -86.283940049969956, 12.125640055883155 ], [ -86.28635975201928, 12.125862785891851 ], [ -86.288749989327258, 12.125999796372614 ], [ -86.29184261935589, 12.126032468092252 ], [ -86.292547437527801, 12.126014287861647 ], [ -86.294094965267774, 12.125953511429616 ], [ -86.2963949218897, 12.125758271439329 ], [ -86.29789546774029, 12.125576117581325 ], [ -86.300936444640087, 12.125123455044388 ], [ -86.302536883150282, 12.124788305104081 ], [ -86.304085129542457, 12.12442136110678 ], [ -86.305886072024052, 12.123924255700137 ], [ -86.308547241221717, 12.123080316148751 ], [ -86.30957176980327, 12.122843267812314 ], [ -86.310229067096657, 12.122787760353706 ], [ -86.310603035749438, 12.122788023838503 ], [ -86.3110942345468, 12.122835363269862 ], [ -86.311778121972594, 12.12296148460814 ], [ -86.312690630638201, 12.123261593430248 ], [ -86.312914041649378, 12.123584800680732 ], [ -86.31298069664345, 12.123774157790113 ], [ -86.311688649770289, 12.127546780339218 ], [ -86.311248834607184, 12.128746753829626 ], [ -86.310908193451453, 12.129467982461598 ], [ -86.31063896836082, 12.130354409474975 ], [ -86.310560725099549, 12.130738032180904 ], [ -86.309320241523707, 12.134082763168006 ], [ -86.308631862521494, 12.135884565456319 ], [ -86.308135363663965, 12.136698867893635 ], [ -86.307825085564829, 12.137048230277351 ], [ -86.307548584120369, 12.137286583335053 ], [ -86.306932699161578, 12.137612583929426 ], [ -86.306179641458911, 12.137867008146314 ], [ -86.299462309258843, 12.138980253950391 ], [ -86.299652123278378, 12.14012757025478 ], [ -86.299624095841523, 12.140446278109231 ], [ -86.299492312989329, 12.141014049630314 ], [ -86.299450182002516, 12.141371310347518 ], [ -86.29939098302529, 12.142435624771361 ], [ -86.299498331701741, 12.143217413215991 ], [ -86.299410566298477, 12.145234051467906 ], [ -86.301000135193732, 12.145300795319972 ], [ -86.301227588623675, 12.145283758075115 ], [ -86.304886606438941, 12.144403352572171 ] ] } },
{ "type": "Feature", "properties": { "name": "Mercado Mayoreo" }, "geometry": { "type": "Point", "coordinates": [ -86.194659637984813, 12.134983226713848 ] } },
{ "type": "Feature", "properties": { "name": "Semaforos Mayoreo" }, "geometry": { "type": "Point", "coordinates": [ -86.19960603143376, 12.135293773077157 ] } },
{ "type": "Feature", "properties": { "name": "Autos Flores" }, "geometry": { "type": "Point", "coordinates": [ -86.201164608451705, 12.136411772117755 ] } },
{ "type": "Feature", "properties": { "name": "MATEPSA" }, "geometry": { "type": "Point", "coordinates": [ -86.203588981740495, 12.138171666994163 ] } },
{ "type": "Feature", "properties": { "name": "Howard" }, "geometry": { "type": "Point", "coordinates": [ -86.205279790768259, 12.139201567645481 ] } },
{ "type": "Feature", "properties": { "name": "Maxi Pali La Reynaga" }, "geometry": { "type": "Point", "coordinates": [ -86.2087518691729, 12.13954592085067 ] } },
{ "type": "Feature", "properties": { "name": "Pulperia Doña Fran" }, "geometry": { "type": "Point", "coordinates": [ -86.21322341316268, 12.140466301626612 ] } },
{ "type": "Feature", "properties": { "name": "Miguel Gutierrez" }, "geometry": { "type": "Point", "coordinates": [ -86.21520958825586, 12.141200408402465 ] } },
{ "type": "Feature", "properties": { "name": "Zona Franca Dasol" }, "geometry": { "type": "Point", "coordinates": [ -86.21396533175583, 12.144039245864331 ] } },
{ "type": "Feature", "properties": { "name": "Taller Conrado" }, "geometry": { "type": "Point", "coordinates": [ -86.213625588915377, 12.146648666267287 ] } },
{ "type": "Feature", "properties": { "name": "Pista Buenos Aires" }, "geometry": { "type": "Point", "coordinates": [ -86.214277136990944, 12.148485862744193 ] } },
{ "type": "Feature", "properties": { "name": "Siemens" }, "geometry": { "type": "Point", "coordinates": [ -86.217424384588853, 12.150111314388557 ] } },
{ "type": "Feature", "properties": { "name": "La Danto" }, "geometry": { "type": "Point", "coordinates": [ -86.220067946806978, 12.150356856925834 ] } },
{ "type": "Feature", "properties": { "name": "Sucursal Norte - DISSUR" }, "geometry": { "type": "Point", "coordinates": [ -86.223262086462725, 12.15068038258396 ] } },
{ "type": "Feature", "properties": { "name": "Nabisco" }, "geometry": { "type": "Point", "coordinates": [ -86.226015871966169, 12.150879292707831 ] } },
{ "type": "Feature", "properties": { "name": "Grupo Q" }, "geometry": { "type": "Point", "coordinates": [ -86.231053534247991, 12.151340693367537 ] } },
{ "type": "Feature", "properties": { "name": "Bar El Trebol" }, "geometry": { "type": "Point", "coordinates": [ -86.236133507179687, 12.151827560649521 ] } },
{ "type": "Feature", "properties": { "name": "Blandón Moreno" }, "geometry": { "type": "Point", "coordinates": [ -86.24125264665777, 12.147237062312675 ] } },
{ "type": "Feature", "properties": { "name": "Colegio Boanerges" }, "geometry": { "type": "Point", "coordinates": [ -86.242256424156253, 12.142057200400833 ] } },
{ "type": "Feature", "properties": { "name": "Iglesia de Dios" }, "geometry": { "type": "Point", "coordinates": [ -86.245640647326113, 12.139694780361603 ] } },
{ "type": "Feature", "properties": { "name": "Ignacio Loyola" }, "geometry": { "type": "Point", "coordinates": [ -86.249361648895984, 12.138400095034063 ] } },
{ "type": "Feature", "properties": { "name": "Bypass" }, "geometry": { "type": "Point", "coordinates": [ -86.254727286088041, 12.135068064924813 ] } },
{ "type": "Feature", "properties": { "name": "Plaza El Sol" }, "geometry": { "type": "Point", "coordinates": [ -86.261493576471068, 12.131039273982861 ] } },
{ "type": "Feature", "properties": { "name": "Catedral de Managua" }, "geometry": { "type": "Point", "coordinates": [ -86.265120883756836, 12.129621678033317 ] } },
{ "type": "Feature", "properties": { "name": "UCA" }, "geometry": { "type": "Point", "coordinates": [ -86.271601779374095, 12.126810264622815 ] } },
{ "type": "Feature", "properties": { "name": "ENEL Central" }, "geometry": { "type": "Point", "coordinates": [ -86.276817038587581, 12.124383156042146 ] } },
{ "type": "Feature", "properties": { "name": "Rotonda El Periodista" }, "geometry": { "type": "Point", "coordinates": [ -86.284594113328325, 12.125743165145323 ] } },
{ "type": "Feature", "properties": { "name": "Julio Martínez" }, "geometry": { "type": "Point", "coordinates": [ -86.288232110565957, 12.126064876326316 ] } },
{ "type": "Feature", "properties": { "name": "El Zumen" }, "geometry": { "type": "Point", "coordinates": [ -86.296396269362631, 12.125815007861492 ] } },
{ "type": "Feature", "properties": { "name": "Mercado Israel Lewites Sur" }, "geometry": { "type": "Point", "coordinates": [ -86.299825408296684, 12.125399584552959 ] } },
{ "type": "Feature", "properties": { "name": "Centro Comercial Nejapa" }, "geometry": { "type": "Point", "coordinates": [ -86.304041291756576, 12.124486968411917 ] } },
{ "type": "Feature", "properties": { "name": "7 Sur" }, "geometry": { "type": "Point", "coordinates": [ -86.311117411081142, 12.12288419577281 ] } },
{ "type": "Feature", "properties": { "name": "Velez Páiz" }, "geometry": { "type": "Point", "coordinates": [ -86.3116016928508, 12.127502515679161 ] } },
{ "type": "Feature", "properties": { "name": "Asososca" }, "geometry": { "type": "Point", "coordinates": [ -86.310286469443312, 12.131002650726579 ] } },
{ "type": "Feature", "properties": { "name": "Aldea SOS" }, "geometry": { "type": "Point", "coordinates": [ -86.30452692099918, 12.138041425159779 ] } },
{ "type": "Feature", "properties": { "name": "El Bodegón" }, "geometry": { "type": "Point", "coordinates": [ -86.299513243735447, 12.139500867778738 ] } },
{ "type": "Feature", "properties": { "name": "Barrio Miraflores" }, "geometry": { "type": "Point", "coordinates": [ -86.300567416721378, 12.145351555764689 ] } },
{ "type": "Feature", "properties": { "name": "El Seminario" }, "geometry": { "type": "Point", "coordinates": [ -86.30450338513873, 12.144572847324214 ] } }
]
}
