{
"type": "FeatureCollection",
"features": [
{ "type": "Feature", "properties": { "name": "Ruta 125 (CS): Altos de Motastepe -> Mercadito (Ciudad Sandino)", "attributes": { "operator": "Cooperativa de Transporte Marlon Zelaya", "to": "Mercadito (Ciudad Sandino)", "ref": "125 (CS)", "network": "IRTRAMMA", "from": "Altos de Motastepe" } }, "geometry": { "type": "LineString", "coordinates": [ [ -86.332281449680394, 12.13905349826509 ], [ -86.33273689552945, 12.138575302106091 ], [ -86.332847388309389, 12.138339584895691 ], [ -86.332995340836689, 12.1378529564182 ], [ -86.333124967732175, 12.137633398070209 ], [ -86.333997231873056, 12.136726181057796 ], [ -86.335038379287354, 12.135377908596306 ], [ -86.335229271285229, 12.135171697485436 ], [ -86.336935351672821, 12.133597532111169 ], [ -86.337558872311547, 12.133254312940563 ], [ -86.338561032842506, 12.132344797565842 ], [ -86.338792977848868, 12.132221491071027 ], [ -86.339128229112902, 12.132141218863536 ], [ -86.33953004553949, 12.132179598466845 ], [ -86.339970669186343, 12.13215571001875 ], [ -86.340197314132539, 12.132195406997504 ], [ -86.340611437478515, 12.132154919592123 ], [ -86.341425670452026, 12.131898469940193 ], [ -86.341577485735044, 12.131594857824389 ], [ -86.341853538021866, 12.131223883222132 ], [ -86.342212325146335, 12.131062020798993 ], [ -86.342522872740048, 12.130832620386863 ], [ -86.343088721537526, 12.130124218021251 ], [ -86.343702899697277, 12.12927810243866 ], [ -86.344116933211737, 12.128981249957883 ], [ -86.345314926474629, 12.128878668905433 ], [ -86.345624036763908, 12.128824831402339 ], [ -86.345707041096162, 12.128951213386665 ], [ -86.345626102889057, 12.12942767029412 ], [ -86.345489648797397, 12.129748323117822 ], [ -86.345360920217175, 12.130718622712008 ], [ -86.345382300120932, 12.131652119956581 ], [ -86.345499081107874, 12.133509795215808 ], [ -86.345620712997345, 12.134173573732799 ], [ -86.345831727257575, 12.136436274950707 ], [ -86.345981925573085, 12.136625095989327 ], [ -86.346818706260251, 12.136677526737715 ], [ -86.347108412939377, 12.136834906744571 ], [ -86.347451749040957, 12.137590101142626 ], [ -86.347591167573071, 12.138576004690607 ], [ -86.347644886827041, 12.139656401840778 ], [ -86.347644886827041, 12.140485007805976 ], [ -86.347709206201387, 12.141114430455454 ], [ -86.348234900305656, 12.1427401027501 ], [ -86.348814313663908, 12.144334412965989 ], [ -86.348873422809604, 12.144731803444397 ], [ -86.348867943086375, 12.145613964276105 ], [ -86.348771374193333, 12.146190858116229 ], [ -86.348749904458032, 12.147344729866184 ], [ -86.34868549525217, 12.147911081557428 ], [ -86.348642645613126, 12.149043781324721 ], [ -86.348567546455371, 12.149599678888862 ], [ -86.348540866491419, 12.150779091202644 ], [ -86.348610396094415, 12.151802268864598 ], [ -86.348696275035579, 12.152410588316673 ], [ -86.348804162701214, 12.152771170837601 ], [ -86.349273981594806, 12.15363951758204 ], [ -86.349483289055996, 12.154125063388463 ], [ -86.35006809230596, 12.1541565900253 ], [ -86.350837050189185, 12.154329415645012 ], [ -86.352318821250321, 12.154958717740438 ], [ -86.353273371071225, 12.155291283010705 ], [ -86.351930479553005, 12.158771118489282 ], [ -86.351716590683836, 12.158845586787066 ], [ -86.351664129071253, 12.158971164175941 ], [ -86.350863550490047, 12.159448269896641 ], [ -86.34691204121826, 12.161530471130133 ], [ -86.347303077861454, 12.162300875306565 ], [ -86.347899828704684, 12.163318125047207 ], [ -86.349001522569139, 12.165411184933113 ], [ -86.349490565409809, 12.166452659397976 ], [ -86.350490929310197, 12.168360496553589 ], [ -86.355305809401543, 12.165977498156389 ], [ -86.355932384312212, 12.165742595547021 ], [ -86.357805371679618, 12.165536407964051 ], [ -86.357748148996023, 12.165336103774768 ] ] } },
{ "type": "Feature", "properties": { "name": "KM 9 Motastepe", "attributes": { "official_status": "none" } }, "geometry": { "type": "Point", "coordinates": [ -86.332335079102862, 12.139124371341774 ] } },
{ "type": "Feature", "properties": { "name": "La Bloquera", "attributes": { "official_status": "none" } }, "geometry": { "type": "Point", "coordinates": [ -86.335924028325977, 12.134689981385261 ] } },
{ "type": "Feature", "properties": { "name": "La Apostolica", "attributes": { "official_status": "none" } }, "geometry": { "type": "Point", "coordinates": [ -86.337681941505451, 12.133375862461975 ] } },
{ "type": "Feature", "properties": { "name": "Puente Mostatepe", "attributes": { "official_status": "none" } }, "geometry": { "type": "Point", "coordinates": [ -86.340213304144584, 12.132288852959523 ] } },
{ "type": "Feature", "properties": { "name": "El Cuadro", "attributes": { "official_status": "none" } }, "geometry": { "type": "Point", "coordinates": [ -86.345550913899771, 12.128991876931089 ] } },
{ "type": "Feature", "properties": { "name": "Colegio Cuachillo", "attributes": { "official_status": "none" } }, "geometry": { "type": "Point", "coordinates": [ -86.345411315704624, 12.134189382145166 ] } },
{ "type": "Feature", "properties": { "name": "Calle del Barrio Nuevo", "attributes": { "official_status": "none" } }, "geometry": { "type": "Point", "coordinates": [ -86.34557777352677, 12.135654115306963 ] } },
{ "type": "Feature", "properties": { "name": "Vuela Rey de Reyes", "attributes": { "official_status": "none" } }, "geometry": { "type": "Point", "coordinates": [ -86.345806394766555, 12.1366116589617 ] } },
{ "type": "Feature", "properties": { "name": "Blanca 2", "attributes": { "official_status": "none" } }, "geometry": { "type": "Point", "coordinates": [ -86.347532777079607, 12.138890059784627 ] } },
{ "type": "Feature", "properties": { "name": "Terminal 125", "attributes": { "official_status": "none" } }, "geometry": { "type": "Point", "coordinates": [ -86.347506725936356, 12.139980994373367 ] } },
{ "type": "Feature", "properties": { "name": "Calle 12", "attributes": { "official_status": "none" } }, "geometry": { "type": "Point", "coordinates": [ -86.347605181291485, 12.141257317181545 ] } },
{ "type": "Feature", "properties": { "name": "Calle 10", "attributes": { "official_status": "none" } }, "geometry": { "type": "Point", "coordinates": [ -86.347962081953867, 12.142333751473176 ] } },
{ "type": "Feature", "properties": { "name": "Calle 8", "attributes": { "official_status": "none" } }, "geometry": { "type": "Point", "coordinates": [ -86.34832661829617, 12.143402892231526 ] } },
{ "type": "Feature", "properties": { "name": "El parque de Villa Soberana", "attributes": { "official_status": "none" } }, "geometry": { "type": "Point", "coordinates": [ -86.348683518958552, 12.144768863918452 ] } },
{ "type": "Feature", "properties": { "name": "La Moncha", "attributes": { "official_status": "none" } }, "geometry": { "type": "Point", "coordinates": [ -86.348562965047421, 12.146665527783993 ] } },
{ "type": "Feature", "properties": { "name": "Los Cocos", "attributes": { "official_status": "none" } }, "geometry": { "type": "Point", "coordinates": [ -86.348442141641698, 12.149239882446322 ] } },
{ "type": "Feature", "properties": { "name": "Pulpería Diarte", "attributes": { "official_status": "none" } }, "geometry": { "type": "Point", "coordinates": [ -86.348432709331234, 12.150806929836714 ] } },
{ "type": "Feature", "properties": { "name": "La primera casa", "attributes": { "official_status": "none" } }, "geometry": { "type": "Point", "coordinates": [ -86.348442141641698, 12.151912481312548 ] } },
{ "type": "Feature", "properties": { "name": "El Cruce de Reyes", "attributes": { "official_status": "none" } }, "geometry": { "type": "Point", "coordinates": [ -86.349145792003753, 12.153590515080289 ] } },
{ "type": "Feature", "properties": { "name": "Villa Nueva", "attributes": { "official_status": "unset" } }, "geometry": { "type": "Point", "coordinates": [ -86.352453478711425, 12.155038017075539 ] } },
{ "type": "Feature", "properties": { "name": "Dispensario Villa Soberana", "attributes": { "official_status": "none" } }, "geometry": { "type": "Point", "coordinates": [ -86.352318911081852, 12.157391431431476 ] } },
{ "type": "Feature", "properties": { "name": "Casa del Adulto Mayor Zona 8", "attributes": { "official_status": "none" } }, "geometry": { "type": "Point", "coordinates": [ -86.351848014209921, 12.158697967417048 ] } },
{ "type": "Feature", "properties": { "name": "ALKE Ciudad Sandino", "attributes": { "official_status": "none" } }, "geometry": { "type": "Point", "coordinates": [ -86.350055785386573, 12.159785483804653 ] } },
{ "type": "Feature", "properties": { "name": "15 de Julio", "attributes": { "official_status": "none" } }, "geometry": { "type": "Point", "coordinates": [ -86.348373690017056, 12.160624389361692 ] } },
{ "type": "Feature", "properties": { "name": "Toño Negro", "attributes": { "official_status": "none" } }, "geometry": { "type": "Point", "coordinates": [ -86.346859399942616, 12.161707155837053 ] } },
{ "type": "Feature", "properties": { "name": "El Molino Zona 8", "attributes": { "official_status": "none" } }, "geometry": { "type": "Point", "coordinates": [ -86.347745048981224, 12.163368355164899 ] } },
{ "type": "Feature", "properties": { "name": "Plaza Padre Miguel", "attributes": { "official_status": "none" } }, "geometry": { "type": "Point", "coordinates": [ -86.348888334843323, 12.165362711485948 ] } },
{ "type": "Feature", "properties": { "name": "Pinar del Río", "attributes": { "official_status": "none" } }, "geometry": { "type": "Point", "coordinates": [ -86.35020104296801, 12.167915722154641 ] } },
{ "type": "Feature", "properties": { "name": "El Gallo Más Gallo", "attributes": { "official_status": "none" } }, "geometry": { "type": "Point", "coordinates": [ -86.35187837726653, 12.167729557723211 ] } },
{ "type": "Feature", "properties": { "name": "Farmacia Nefi", "attributes": { "official_status": "none" } }, "geometry": { "type": "Point", "coordinates": [ -86.353363202599638, 12.167000880783974 ] } },
{ "type": "Feature", "properties": { "name": "Iglesia San Francisco", "attributes": { "official_status": "none" } }, "geometry": { "type": "Point", "coordinates": [ -86.35469657197585, 12.166354220038475 ] } },
{ "type": "Feature", "properties": { "name": "Palí CIudad Sandino", "attributes": { "official_status": "unset" } }, "geometry": { "type": "Point", "coordinates": [ -86.355958165960871, 12.165812232117922 ] } },
{ "type": "Feature", "properties": { "name": "Alcaldía de Ciudad Sandino", "attributes": { "official_status": "IRTRAMMA:bus_stop" } }, "geometry": { "type": "Point", "coordinates": [ -86.357500213977588, 12.165637218608079 ] } },
{ "type": "Feature", "properties": { "name": "Mercadito de Ciudad Sandino", "attributes": { "official_status": "IRTRAMMA:bus_station" } }, "geometry": { "type": "Point", "coordinates": [ -86.357793424086324, 12.165328288307951 ] } }
]
}
