{
"type": "FeatureCollection",
                                                                                
"features": [
{ "type": "Feature", "properties": { "name": null }, "geometry": { "type": "MultiLineString", "coordinates": [ [ [ -86.349483289055996, 12.154125063388463 ], [ -86.349703286469079, 12.154127785744434 ], [ -86.35006809230596, 12.1541565900253 ], [ -86.350483922450977, 12.154231323068743 ], [ -86.350837050189185, 12.154329415645012 ], [ -86.351436495978263, 12.154582945708173 ], [ -86.351839210720129, 12.154754805055921 ], [ -86.352318821250321, 12.154958717740438 ], [ -86.352468750071239, 12.155012110872308 ], [ -86.352629189180988, 12.155069280151309 ], [ -86.352948989422146, 12.155183179584517 ], [ -86.353273371071225, 12.155291283010705 ], [ -86.353176173357483, 12.155527248663288 ], [ -86.353039898928884, 12.155882118831906 ], [ -86.352842089903334, 12.156397254938007 ], [ -86.352742287075259, 12.156657105861525 ], [ -86.352472702658488, 12.157333384482824 ], [ -86.352432817459871, 12.157421113527406 ], [ -86.352330229854431, 12.157703181090271 ], [ -86.351930479553005, 12.158771118489282 ], [ -86.351716590683836, 12.158845586787066 ], [ -86.351664129071253, 12.158971164175941 ], [ -86.350863550490047, 12.159448269896641 ], [ -86.35011282840712, 12.159837470910762 ], [ -86.350035932618781, 12.159877515026103 ], [ -86.349293205541869, 12.160270491495943 ], [ -86.348505293206188, 12.160687353275049 ], [ -86.348442141641698, 12.160720898896434 ], [ -86.347688634781392, 12.161119494319879 ], [ -86.34691204121826, 12.161530471130133 ], [ -86.346971599521595, 12.16163031732337 ], [ -86.347303077861454, 12.162300875306565 ], [ -86.347779544288144, 12.163108686429696 ], [ -86.347899828704684, 12.163318125047207 ], [ -86.348181270883202, 12.163857747056129 ], [ -86.348432350005098, 12.164351177516041 ], [ -86.348701934421868, 12.164870775748421 ], [ -86.348955349163518, 12.165327849236766 ], [ -86.349001522569139, 12.165411184933113 ], [ -86.349270837491304, 12.165945094780749 ], [ -86.349490565409809, 12.166452659397976 ], [ -86.349753232798875, 12.166953373577439 ], [ -86.350224848323052, 12.167852847766913 ], [ -86.350249372330282, 12.167899827932333 ], [ -86.350490929310197, 12.168360496553589 ], [ -86.351849182019791, 12.167668176120298 ], [ -86.351906943692555, 12.167638758608859 ], [ -86.35210538153882, 12.167540670942742 ], [ -86.35307951463291, 12.167059452503818 ], [ -86.353252619988169, 12.166980420195138 ], [ -86.353278581299875, 12.166967775023569 ], [ -86.353597573057257, 12.166803475552145 ], [ -86.354090119327552, 12.166559967917825 ], [ -86.354250109279661, 12.166480847646747 ], [ -86.354510081722864, 12.166356854455341 ], [ -86.354639888281426, 12.166296350674516 ], [ -86.355305809401543, 12.165977498156389 ], [ -86.355818477934207, 12.165784482868659 ], [ -86.355932384312212, 12.165742595547021 ], [ -86.356618966683868, 12.165675505567389 ], [ -86.357105763736328, 12.165624309930188 ], [ -86.357468323785014, 12.165575924336036 ], [ -86.357805371679618, 12.165536407964051 ] ], [ [ -86.332229077899328, 12.139101361745212 ], [ -86.332281449680394, 12.13905349826509 ], [ -86.332544476395583, 12.138786692139362 ], [ -86.33282052868239, 12.138449363801305 ], [ -86.332930931630827, 12.138017625060447 ], [ -86.33319314986224, 12.137552073612193 ], [ -86.333959143305009, 12.136742516260741 ], [ -86.334883779226971, 12.135507888260506 ], [ -86.335870578566571, 12.134603913512686 ], [ -86.336533086088608, 12.133942682980772 ], [ -86.337557435007085, 12.133252995568276 ], [ -86.338133973756428, 12.132633917698941 ], [ -86.338486023516282, 12.132296581571449 ], [ -86.338906884226901, 12.132127869434999 ], [ -86.339300346321323, 12.132127869434999 ], [ -86.339695335551767, 12.132144292745009 ], [ -86.339970669186343, 12.13215571001875 ], [ -86.340197314132539, 12.132195406997504 ], [ -86.340611437478515, 12.132154919592123 ], [ -86.341425670452026, 12.131898469940193 ], [ -86.341577485735044, 12.131594857824389 ], [ -86.341853538021866, 12.131223883222132 ], [ -86.342212325146335, 12.131062020798993 ], [ -86.342522872740048, 12.130832620386863 ], [ -86.343088721537526, 12.130124218021251 ], [ -86.343702899697277, 12.12927810243866 ], [ -86.344116933211737, 12.128981249957883 ], [ -86.344773871179001, 12.128932682050115 ], [ -86.345314926474629, 12.128878668905433 ], [ -86.345624036763908, 12.128824831402339 ], [ -86.345707041096162, 12.128951213386665 ], [ -86.345626102889057, 12.12942767029412 ], [ -86.345489648797397, 12.129748323117822 ], [ -86.345443475391789, 12.130162685740821 ], [ -86.345360920217175, 12.130718622712008 ], [ -86.345382300120932, 12.131652119956581 ], [ -86.345499081107874, 12.133509795215808 ], [ -86.345620712997345, 12.134173573732799 ], [ -86.345765701084204, 12.135643576423419 ], [ -86.345788787787001, 12.135817380124662 ], [ -86.345831727257575, 12.136436274950707 ], [ -86.345918504514032, 12.136544385989668 ], [ -86.345981925573085, 12.136625095989327 ], [ -86.346818706260251, 12.136677526737715 ], [ -86.347108412939377, 12.136834906744571 ], [ -86.347451749040957, 12.137590101142626 ], [ -86.347496305479055, 12.137905123455068 ], [ -86.347540143264922, 12.138214700357677 ], [ -86.3475685300279, 12.138415903195662 ], [ -86.347591167573071, 12.138576004690607 ], [ -86.34760248634565, 12.138802500278025 ], [ -86.347607966068864, 12.1388954169852 ], [ -86.347614164444323, 12.13903839272462 ], [ -86.347629974793335, 12.139356574945454 ], [ -86.347634735864347, 12.139452126142634 ], [ -86.347644886827041, 12.139656401840778 ], [ -86.347644886827041, 12.139831783731777 ], [ -86.347645425816225, 12.139987581068391 ], [ -86.347644886827041, 12.140106492841216 ], [ -86.347644886827041, 12.140255000748816 ], [ -86.347644886827041, 12.140485007805976 ], [ -86.347661505659815, 12.140647391439193 ], [ -86.347709206201387, 12.141114430455454 ], [ -86.347726723349439, 12.141197861558686 ], [ -86.347848714565032, 12.141586386688791 ], [ -86.348041762519557, 12.142163201433291 ], [ -86.348083624011807, 12.142244700127158 ], [ -86.348234900305656, 12.1427401027501 ], [ -86.348428127923285, 12.143254122614746 ], [ -86.348478523410719, 12.14337320857201 ], [ -86.348653425396535, 12.143841384485061 ], [ -86.348814313663908, 12.144334412965989 ], [ -86.348873422809604, 12.144731803444397 ], [ -86.348889412821663, 12.145100124609002 ], [ -86.348867943086375, 12.145613964276105 ], [ -86.348771374193333, 12.146190858116229 ], [ -86.348756282496566, 12.146670709187369 ], [ -86.348749904458032, 12.14678882759252 ], [ -86.348749904458032, 12.147344729866184 ], [ -86.348745502713172, 12.147383195099044 ], [ -86.34868549525217, 12.147911081557428 ], [ -86.348674805300291, 12.148487882599502 ], [ -86.348642645613126, 12.149043781324721 ], [ -86.348601502773107, 12.149239882446322 ], [ -86.348567546455371, 12.149599678888862 ], [ -86.348556766671962, 12.150134586491411 ], [ -86.348546076720083, 12.150711470533659 ] ] ] } },
{ "type": "Feature", "properties": { "name": "KM 9" }, "geometry": { "type": "Point", "coordinates": [ -86.332335079102862, 12.139124371341774 ] } },
{ "type": "Feature", "properties": { "name": "La Bloquera" }, "geometry": { "type": "Point", "coordinates": [ -86.336071082537984, 12.134733717905778 ] } },
{ "type": "Feature", "properties": { "name": "La Apostolica" }, "geometry": { "type": "Point", "coordinates": [ -86.337711406246783, 12.133404668987829 ] } },
{ "type": "Feature", "properties": { "name": "Puente Mostatepe" }, "geometry": { "type": "Point", "coordinates": [ -86.340213304144584, 12.132288852959523 ] } },
{ "type": "Feature", "properties": { "name": "El Cuadro" }, "geometry": { "type": "Point", "coordinates": [ -86.345550913899771, 12.128991876931089 ] } },
{ "type": "Feature", "properties": { "name": "None" }, "geometry": { "type": "Point", "coordinates": [ -86.345287797353052, 12.130162685740821 ] } },
{ "type": "Feature", "properties": { "name": "Colegio Cuachillo" }, "geometry": { "type": "Point", "coordinates": [ -86.345411315704624, 12.134189382145166 ] } },
{ "type": "Feature", "properties": { "name": "Calle del Barrio Nuevo" }, "geometry": { "type": "Point", "coordinates": [ -86.34557777352677, 12.135654115306963 ] } },
{ "type": "Feature", "properties": { "name": "Vuela Rey de Reyes" }, "geometry": { "type": "Point", "coordinates": [ -86.345806394766555, 12.1366116589617 ] } },
{ "type": "Feature", "properties": { "name": "Blanca 2" }, "geometry": { "type": "Point", "coordinates": [ -86.347532777079607, 12.138890059784627 ] } },
{ "type": "Feature", "properties": { "name": "Terminal 125" }, "geometry": { "type": "Point", "coordinates": [ -86.347506725936356, 12.139980994373367 ] } },
{ "type": "Feature", "properties": { "name": "Calle 12" }, "geometry": { "type": "Point", "coordinates": [ -86.347605181291485, 12.141257317181545 ] } },
{ "type": "Feature", "properties": { "name": "Calle 10" }, "geometry": { "type": "Point", "coordinates": [ -86.347962081953867, 12.142333751473176 ] } },
{ "type": "Feature", "properties": { "name": "Calle 8" }, "geometry": { "type": "Point", "coordinates": [ -86.34832661829617, 12.143402892231526 ] } },
{ "type": "Feature", "properties": { "name": "El parque de Villa Soberana" }, "geometry": { "type": "Point", "coordinates": [ -86.348683518958552, 12.144768863918452 ] } },
{ "type": "Feature", "properties": { "name": "La Moncha" }, "geometry": { "type": "Point", "coordinates": [ -86.348562965047421, 12.146665527783993 ] } },
{ "type": "Feature", "properties": { "name": "Los Cocos" }, "geometry": { "type": "Point", "coordinates": [ -86.348442141641698, 12.149239882446322 ] } },
{ "type": "Feature", "properties": { "name": "Pulpería Diarte" }, "geometry": { "type": "Point", "coordinates": [ -86.348432709331234, 12.150806929836714 ] } },
{ "type": "Feature", "properties": { "name": "La primera casa" }, "geometry": { "type": "Point", "coordinates": [ -86.348442141641698, 12.151912481312548 ] } },
{ "type": "Feature", "properties": { "name": "El Cruce de Reyes" }, "geometry": { "type": "Point", "coordinates": [ -86.349145792003753, 12.153590515080289 ] } },
{ "type": "Feature", "properties": { "name": "Villa Nueva" }, "geometry": { "type": "Point", "coordinates": [ -86.352453478711425, 12.155038017075539 ] } },
{ "type": "Feature", "properties": { "name": "Dispensario Villa Soberana" }, "geometry": { "type": "Point", "coordinates": [ -86.352318911081852, 12.157391431431476 ] } },
{ "type": "Feature", "properties": { "name": "Casa del Adulto Mayor" }, "geometry": { "type": "Point", "coordinates": [ -86.351848014209921, 12.158697967417048 ] } },
{ "type": "Feature", "properties": { "name": "ALKE" }, "geometry": { "type": "Point", "coordinates": [ -86.350055785386573, 12.159785483804653 ] } },
{ "type": "Feature", "properties": { "name": "15 de Julio" }, "geometry": { "type": "Point", "coordinates": [ -86.348373690017056, 12.160624389361692 ] } },
{ "type": "Feature", "properties": { "name": "Toño Negro" }, "geometry": { "type": "Point", "coordinates": [ -86.346859399942616, 12.161707155837053 ] } },
{ "type": "Feature", "properties": { "name": "El Molino" }, "geometry": { "type": "Point", "coordinates": [ -86.347745048981224, 12.163368355164899 ] } },
{ "type": "Feature", "properties": { "name": "Plaza Padre Miguel" }, "geometry": { "type": "Point", "coordinates": [ -86.348888334843323, 12.165362711485948 ] } },
{ "type": "Feature", "properties": { "name": "Pinar del Río" }, "geometry": { "type": "Point", "coordinates": [ -86.35020104296801, 12.167915722154641 ] } },
{ "type": "Feature", "properties": { "name": "El Gallo Más Gallo" }, "geometry": { "type": "Point", "coordinates": [ -86.35187837726653, 12.167729557723211 ] } },
{ "type": "Feature", "properties": { "name": "Farmacia Nefi" }, "geometry": { "type": "Point", "coordinates": [ -86.353363202599638, 12.167000880783974 ] } },
{ "type": "Feature", "properties": { "name": "Iglesia San Francisco" }, "geometry": { "type": "Point", "coordinates": [ -86.35469657197585, 12.166354220038475 ] } },
{ "type": "Feature", "properties": { "name": "Palí" }, "geometry": { "type": "Point", "coordinates": [ -86.355958165960871, 12.165812232117922 ] } },
{ "type": "Feature", "properties": { "name": "Alcaldía" }, "geometry": { "type": "Point", "coordinates": [ -86.357500213977588, 12.165637218608079 ] } }
]
}
