{
"type": "FeatureCollection",
"features": [
{ "type": "Feature", "properties": { "name": "Ruta 170: Mercado Oriental => Villa José Benito Escobar", "attributes": { "operator": "Cooperativa La Reconciliación", "to": "Villa José Benito Escobar", "ref": "170", "network": "IRTRAMMA", "from": "Mercado Oriental" } }, "geometry": { "type": "LineString", "coordinates": [ [ -86.260495907516543, 12.151981945867846 ], [ -86.258822525805272, 12.151920472810984 ], [ -86.258541173458298, 12.153513322949012 ], [ -86.235651920355863, 12.151482432960375 ], [ -86.224234512757775, 12.150429571195968 ], [ -86.223763615885844, 12.150330072074945 ], [ -86.223343833153564, 12.150393653159215 ], [ -86.222802149037236, 12.150289411787947 ], [ -86.220973897770989, 12.150112719496715 ], [ -86.214081124595936, 12.149504394791673 ], [ -86.211541138130102, 12.149214853874131 ], [ -86.210639948237059, 12.149047118469955 ], [ -86.209781607983089, 12.14883731733655 ], [ -86.20946468235087, 12.148796393362421 ], [ -86.209000522843539, 12.148786996655017 ], [ -86.208185211891688, 12.148912754431189 ], [ -86.207412750578854, 12.14888755018891 ], [ -86.20538713944471, 12.148702953191872 ], [ -86.205370969769604, 12.148823617466089 ], [ -86.20513489251293, 12.148807019545155 ], [ -86.199947930230906, 12.148340169662411 ], [ -86.19239884790926, 12.147573150037378 ], [ -86.190745049471204, 12.14742297762856 ], [ -86.190535831841544, 12.147477601754311 ], [ -86.189755824680347, 12.147400320029696 ], [ -86.189708034307216, 12.147468292820498 ], [ -86.189633294475584, 12.147994598350859 ], [ -86.189431263368178, 12.148619085341691 ], [ -86.189076877988597, 12.152648927621744 ], [ -86.188972493752573, 12.153488206960635 ], [ -86.18882543954058, 12.155356794895056 ], [ -86.188460993029807, 12.156458726960411 ], [ -86.188302799708268, 12.156807009607643 ], [ -86.188105619503403, 12.157540895679681 ], [ -86.187908169803961, 12.158791052811607 ], [ -86.188045522210899, 12.160762874825094 ], [ -86.188471862644747, 12.162690511220511 ] ] } },
{ "type": "Feature", "properties": { "name": "Terminal 170", "attributes": null }, "geometry": { "type": "Point", "coordinates": [ -86.26050354319645, 12.15194488639812 ] } },
{ "type": "Feature", "properties": { "name": "Llantera Vargas", "attributes": null }, "geometry": { "type": "Point", "coordinates": [ -86.258608008115431, 12.152740083128556 ] } },
{ "type": "Feature", "properties": { "name": "Planta Eléctrica", "attributes": null }, "geometry": { "type": "Point", "coordinates": [ -86.257357193913819, 12.153343306981345 ] } },
{ "type": "Feature", "properties": { "name": "Quinta Nina", "attributes": null }, "geometry": { "type": "Point", "coordinates": [ -86.254503246256192, 12.153119194857954 ] } },
{ "type": "Feature", "properties": { "name": "Peugeut", "attributes": null }, "geometry": { "type": "Point", "coordinates": [ -86.250218731508554, 12.152717162527184 ] } },
{ "type": "Feature", "properties": { "name": "Ajax Delgado", "attributes": null }, "geometry": { "type": "Point", "coordinates": [ -86.248287892636881, 12.152568046842443 ] } },
{ "type": "Feature", "properties": { "name": "Súper de los Militares", "attributes": null }, "geometry": { "type": "Point", "coordinates": [ -86.246068874222061, 12.15237036744016 ] } },
{ "type": "Feature", "properties": { "name": "Lácteos Calibri", "attributes": null }, "geometry": { "type": "Point", "coordinates": [ -86.242723278609404, 12.15207046704476 ] } },
{ "type": "Feature", "properties": { "name": "Palí San Luis", "attributes": null }, "geometry": { "type": "Point", "coordinates": [ -86.24128300971438, 12.151949979880047 ] } },
{ "type": "Feature", "properties": { "name": "RARPE", "attributes": null }, "geometry": { "type": "Point", "coordinates": [ -86.236080326914873, 12.151482257322765 ] } },
{ "type": "Feature", "properties": { "name": "Futec", "attributes": null }, "geometry": { "type": "Point", "coordinates": [ -86.232584982144346, 12.15114108103719 ] } },
{ "type": "Feature", "properties": { "name": "Iglesia Adventista", "attributes": null }, "geometry": { "type": "Point", "coordinates": [ -86.230672199409881, 12.150951831197244 ] } },
{ "type": "Feature", "properties": { "name": "Casa de las Mangueras", "attributes": null }, "geometry": { "type": "Point", "coordinates": [ -86.225133097536471, 12.150439319121972 ] } },
{ "type": "Feature", "properties": { "name": "Enacal", "attributes": null }, "geometry": { "type": "Point", "coordinates": [ -86.22071653044209, 12.150057832453934 ] } },
{ "type": "Feature", "properties": { "name": "Agri corp", "attributes": null }, "geometry": { "type": "Point", "coordinates": [ -86.217439566117164, 12.149772595287763 ] } },
{ "type": "Feature", "properties": { "name": "AGCO", "attributes": null }, "geometry": { "type": "Point", "coordinates": [ -86.213019585424703, 12.149361161213665 ] } },
{ "type": "Feature", "properties": { "name": "Gasolinera Waspam", "attributes": null }, "geometry": { "type": "Point", "coordinates": [ -86.208578494323078, 12.148807546463285 ] } },
{ "type": "Feature", "properties": { "name": "Entrada Barrio Hugo Chávez", "attributes": null }, "geometry": { "type": "Point", "coordinates": [ -86.203064814772191, 12.148590456100923 ] } },
{ "type": "Feature", "properties": { "name": "La Rocargo", "attributes": null }, "geometry": { "type": "Point", "coordinates": [ -86.199946313263382, 12.148270704156536 ] } },
{ "type": "Feature", "properties": { "name": "Subasta", "attributes": null }, "geometry": { "type": "Point", "coordinates": [ -86.194186674987733, 12.147689950741206 ] } },
{ "type": "Feature", "properties": { "name": "Funeraria Aurora", "attributes": null }, "geometry": { "type": "Point", "coordinates": [ -86.189612094234874, 12.147726747343302 ] } },
{ "type": "Feature", "properties": { "name": "Palí Las Mercedes", "attributes": null }, "geometry": { "type": "Point", "coordinates": [ -86.189111463127034, 12.15150491457411 ] } },
{ "type": "Feature", "properties": { "name": "Panadería Trigo Dorado", "attributes": null }, "geometry": { "type": "Point", "coordinates": [ -86.189034567338709, 12.152512018666043 ] } },
{ "type": "Feature", "properties": { "name": "Transagro", "attributes": null }, "geometry": { "type": "Point", "coordinates": [ -86.188759862524833, 12.155244300617243 ] } },
{ "type": "Feature", "properties": { "name": "Colegio Las Américas", "attributes": null }, "geometry": { "type": "Point", "coordinates": [ -86.187922093690858, 12.159915100286771 ] } },
{ "type": "Feature", "properties": { "name": "Cancha Benito Escobar", "attributes": null }, "geometry": { "type": "Point", "coordinates": [ -86.188267046759961, 12.16184028399789 ] } },
{ "type": "Feature", "properties": { "name": "Terminal 170", "attributes": null }, "geometry": { "type": "Point", "coordinates": [ -86.188437636832418, 12.162697360798749 ] } }
]
}
