{
"type": "FeatureCollection",
"features": [
{ "type": "Feature", "properties": { "name": null }, "geometry": { "type": "LineString", "coordinates": [ [ -86.286982823500324, 12.107947093342966 ], [ -86.287146586376636, 12.108041865294938 ], [ -86.287215127832795, 12.108129610566188 ], [ -86.28722447031177, 12.108524420013556 ], [ -86.287127631924122, 12.10907750359044 ], [ -86.288321582768248, 12.109026297075856 ], [ -86.291053808704902, 12.108748569633599 ], [ -86.290997574168117, 12.109300950084636 ], [ -86.291034674589341, 12.11046051493428 ], [ -86.291193406900064, 12.111533999431579 ], [ -86.291103485540106, 12.112458429317195 ], [ -86.293386733497755, 12.11217446938984 ], [ -86.293578074653283, 12.114130651169914 ], [ -86.29358571033319, 12.114455977424889 ], [ -86.293715427060221, 12.114634625637077 ], [ -86.293921320923346, 12.11503750590094 ], [ -86.294007199864495, 12.115507400360874 ], [ -86.293751269840058, 12.1184865119873 ], [ -86.294628564546514, 12.118565470860114 ], [ -86.294289630189837, 12.121503093207183 ], [ -86.294169435604815, 12.121721259582454 ], [ -86.294023549202663, 12.121880668475715 ], [ -86.293886196795739, 12.122107266077414 ], [ -86.293774626037447, 12.122367413939376 ], [ -86.293510880670013, 12.123846791487967 ], [ -86.295765113043998, 12.12415418902283 ], [ -86.295607728206207, 12.125828796742459 ], [ -86.29789546774029, 12.125576117581325 ], [ -86.300585472858586, 12.125179928119167 ], [ -86.300770435975579, 12.125218396552059 ], [ -86.300980731583607, 12.12542259533242 ], [ -86.301133714676482, 12.126376662658815 ], [ -86.30126828230604, 12.126967299148433 ], [ -86.301512983389443, 12.128779161733791 ], [ -86.301523044520607, 12.129172008453907 ], [ -86.301492232306373, 12.129459814637309 ], [ -86.301403299093238, 12.129743580515182 ], [ -86.301214203725948, 12.130144681443541 ], [ -86.30051765005463, 12.131037166169694 ], [ -86.300251569067484, 12.131482968285196 ], [ -86.299882541148762, 12.132337859381398 ], [ -86.299442007333411, 12.134453031195513 ], [ -86.299111786634981, 12.136374798304615 ], [ -86.298885501014908, 12.137293521390662 ], [ -86.298732877248142, 12.137715864206928 ], [ -86.298534978391061, 12.138152960652349 ], [ -86.298200176284652, 12.13869843001458 ], [ -86.297800246320165, 12.139202270228356 ], [ -86.297482332541108, 12.139672912509454 ], [ -86.297966165153156, 12.139365269403227 ], [ -86.298576839883296, 12.139138949940092 ], [ -86.306179641458911, 12.137867008146314 ], [ -86.306569330629145, 12.137836094343484 ], [ -86.307042293626253, 12.137753803890657 ], [ -86.307372873650806, 12.137739664333232 ], [ -86.307595116852085, 12.137825994662812 ], [ -86.307714592784876, 12.13806935294892 ], [ -86.307763191641754, 12.138591110257309 ], [ -86.307729235324018, 12.139444573383818 ], [ -86.30768009747797, 12.139711905786731 ], [ -86.307464681472837, 12.140249555753078 ], [ -86.307203990377388, 12.140694552053981 ], [ -86.305036445428343, 12.143616210503948 ], [ -86.304911220277731, 12.143926746802544 ], [ -86.304886606438941, 12.144403352572171 ], [ -86.301227588623675, 12.145283758075115 ], [ -86.301000135193732, 12.145300795319972 ], [ -86.297516827848028, 12.145138677987093 ], [ -86.297540184045417, 12.145643208582143 ], [ -86.297367887173934, 12.149330073106237 ], [ -86.296451066594955, 12.149280718532744 ], [ -86.29223940521689, 12.14886577091143 ], [ -86.291920593122541, 12.151968948708436 ], [ -86.291806866407583, 12.152136770089543 ], [ -86.291770394807045, 12.152559177178942 ], [ -86.282643691183452, 12.152132730434309 ], [ -86.282687169643211, 12.151762047896128 ], [ -86.282686989980135, 12.151364580094798 ], [ -86.282657884564927, 12.151221259699097 ], [ -86.282084939076725, 12.150612761889887 ], [ -86.28200975008744, 12.150481560130553 ], [ -86.281944981555455, 12.150260519269219 ], [ -86.282351648884571, 12.145900259746529 ], [ -86.279397898398869, 12.145601405909455 ], [ -86.278031021862546, 12.145318798593001 ], [ -86.27569773774357, 12.144900595419513 ], [ -86.275548437743353, 12.145732785715783 ], [ -86.275318469030623, 12.1458526609504 ], [ -86.275153448512938, 12.145893058453202 ], [ -86.27500513665953, 12.145861091734108 ], [ -86.274859789246563, 12.145721895948205 ], [ -86.274684438103094, 12.14565076116515 ], [ -86.274588498030738, 12.145656557333375 ], [ -86.27444934899323, 12.145723828003778 ], [ -86.274189735876121, 12.145672013781349 ], [ -86.27383759628475, 12.145392831551689 ], [ -86.273601968185716, 12.145296492098444 ], [ -86.273213536656868, 12.145223864246907 ], [ -86.272866607294148, 12.145219912307629 ], [ -86.272744975404677, 12.145260924652465 ], [ -86.272445836415073, 12.145429101546485 ], [ -86.272300399170561, 12.145564433372062 ], [ -86.272121364934435, 12.145637148951426 ], [ -86.271568451877073, 12.145631616244998 ], [ -86.271052100251751, 12.145496899199051 ], [ -86.270760237615931, 12.145353575643774 ], [ -86.270500175341184, 12.145119796492832 ], [ -86.270343329492576, 12.144878727994854 ], [ -86.27018962774747, 12.144780719756207 ], [ -86.267895510174881, 12.144352679767843 ], [ -86.265626635261796, 12.14397241387473 ], [ -86.264098870458085, 12.144121007447719 ], [ -86.263596263056613, 12.144063923638123 ], [ -86.262969508482882, 12.143921828809679 ], [ -86.262437436340107, 12.143940973852793 ], [ -86.262209623584056, 12.14399287623338 ], [ -86.26198639223594, 12.144063221068071 ], [ -86.26161709482264, 12.144271093897952 ], [ -86.260453327372062, 12.145282177299757 ], [ -86.260224167143093, 12.144693601291575 ], [ -86.259943713111383, 12.14363632160439 ], [ -86.257432921892274, 12.143173853731495 ], [ -86.256697830495284, 12.142664049154348 ], [ -86.255850719182362, 12.141973593922938 ], [ -86.255625421709098, 12.141915894899247 ], [ -86.255542237713769, 12.142065280017057 ], [ -86.255478008170982, 12.142518791995382 ], [ -86.255395183501776, 12.142554974559923 ], [ -86.254284416652951, 12.14245916101058 ], [ -86.25371165082781, 12.142370460993746 ], [ -86.25184980256995, 12.142239869925096 ], [ -86.246790490889779, 12.141795403138225 ], [ -86.244749428732732, 12.14171153311205 ], [ -86.244551979033275, 12.141686328188024 ], [ -86.244253918022011, 12.141596486226886 ], [ -86.243236216636632, 12.14118521516156 ], [ -86.242769182520419, 12.141096602542641 ], [ -86.237854499601013, 12.140768498476 ], [ -86.238050511995993, 12.137975909014033 ], [ -86.238305274210575, 12.135719719847666 ], [ -86.233873615419427, 12.135205597619384 ], [ -86.23324389640527, 12.135145525876469 ], [ -86.23296919159138, 12.135149829262001 ], [ -86.233428679859202, 12.131246454371535 ], [ -86.232850793636914, 12.130976654359344 ], [ -86.232001526367327, 12.130665224708878 ], [ -86.23189624381601, 12.130596457198946 ], [ -86.231397948327938, 12.1304367900385 ], [ -86.23136596830382, 12.130324373058485 ], [ -86.231273621492605, 12.130248930699226 ], [ -86.231096833044674, 12.130259733273499 ], [ -86.231011043935055, 12.130353794694555 ], [ -86.229953547182589, 12.130111307620973 ], [ -86.229051548805799, 12.129863814248525 ], [ -86.228317265892557, 12.129781872637754 ], [ -86.227365231354455, 12.129621678033317 ], [ -86.227270099765875, 12.129640384973992 ], [ -86.226503208007813, 12.129532710264606 ], [ -86.225105788751819, 12.129394120729623 ], [ -86.224995385803425, 12.129230588498713 ], [ -86.224760386525091, 12.129192032818498 ], [ -86.224678370339646, 12.129325704196242 ], [ -86.223407972864834, 12.129127919716028 ], [ -86.220122384713164, 12.128844153182847 ], [ -86.219360793015298, 12.128739112941075 ], [ -86.21926763772035, 12.128683167578025 ], [ -86.217592369546992, 12.128408885824475 ], [ -86.217517000894645, 12.128424958057977 ], [ -86.216396801735357, 12.128251852147875 ], [ -86.213278479889581, 12.127927157501976 ], [ -86.211402168755654, 12.127683526474742 ], [ -86.208150177595613, 12.127152525995179 ], [ -86.20730010184225, 12.126970109608898 ], [ -86.205229215617777, 12.126216378181292 ], [ -86.203871322234292, 12.12561484943908 ], [ -86.203733251175123, 12.125509193133571 ], [ -86.20156247229103, 12.124601847027813 ], [ -86.198768442262846, 12.123881132201587 ], [ -86.198395641419935, 12.126918818700727 ] ] } },
{ "type": "Feature", "properties": { "name": "Colonia Rubenia" }, "geometry": { "type": "Point", "coordinates": [ -86.227851130091636, 12.129655666699215 ] } },
{ "type": "Feature", "properties": { "name": "Barracudas" }, "geometry": { "type": "Point", "coordinates": [ -86.271916549049664, 12.145599210390751 ] } },
{ "type": "Feature", "properties": { "name": "Casa del Adulto Mayor" }, "geometry": { "type": "Point", "coordinates": [ -86.253289801970396, 12.142304506803651 ] } },
{ "type": "Feature", "properties": { "name": "Farmacia Sophya" }, "geometry": { "type": "Point", "coordinates": [ -86.211977449863596, 12.127671582049519 ] } },
{ "type": "Feature", "properties": { "name": "Palí" }, "geometry": { "type": "Point", "coordinates": [ -86.204908696724388, 12.12597336038149 ] } },
{ "type": "Feature", "properties": { "name": "Terminal 175" }, "geometry": { "type": "Point", "coordinates": [ -86.286969438602583, 12.108003570052407 ] } },
{ "type": "Feature", "properties": { "name": "Monumento Memorial Sandino" }, "geometry": { "type": "Point", "coordinates": [ -86.287534838242408, 12.109125284617493 ] } },
{ "type": "Feature", "properties": { "name": "Pozo Enacal" }, "geometry": { "type": "Point", "coordinates": [ -86.29095202958321, 12.108959807641751 ] } },
{ "type": "Feature", "properties": { "name": "Barrio Franciso de Asís" }, "geometry": { "type": "Point", "coordinates": [ -86.291049317128483, 12.112405291153946 ] } },
{ "type": "Feature", "properties": { "name": "Colegio Roberto Vargas Bretes" }, "geometry": { "type": "Point", "coordinates": [ -86.293425271223455, 12.112992533144203 ] } },
{ "type": "Feature", "properties": { "name": "Centro Educativo Especial Melania Morales" }, "geometry": { "type": "Point", "coordinates": [ -86.293915841200104, 12.116250622395217 ] } },
{ "type": "Feature", "properties": { "name": "Super Boutique" }, "geometry": { "type": "Point", "coordinates": [ -86.293717313522322, 12.118320074687217 ] } },
{ "type": "Feature", "properties": { "name": "Pulpería Wendy" }, "geometry": { "type": "Point", "coordinates": [ -86.294333827301813, 12.120630162435083 ] } },
{ "type": "Feature", "properties": { "name": "Barrio el Pilar" }, "geometry": { "type": "Point", "coordinates": [ -86.293564330429433, 12.123277665973955 ] } },
{ "type": "Feature", "properties": { "name": "Colegio La Senda" }, "geometry": { "type": "Point", "coordinates": [ -86.295657584704486, 12.125015163718217 ] } },
{ "type": "Feature", "properties": { "name": "El Zumen" }, "geometry": { "type": "Point", "coordinates": [ -86.296396269362631, 12.125815007861492 ] } },
{ "type": "Feature", "properties": { "name": "Mercado Israel Lewites Sur" }, "geometry": { "type": "Point", "coordinates": [ -86.299825408296684, 12.125399584552959 ] } },
{ "type": "Feature", "properties": { "name": "Mercado Israel Lewites Oeste" }, "geometry": { "type": "Point", "coordinates": [ -86.301349669670799, 12.127969226427549 ] } },
{ "type": "Feature", "properties": { "name": "Parque Héroes y Mártires" }, "geometry": { "type": "Point", "coordinates": [ -86.299404367923017, 12.134318396319983 ] } },
{ "type": "Feature", "properties": { "name": "Cemex 150 mts al Norte" }, "geometry": { "type": "Point", "coordinates": [ -86.298149241808034, 12.138658470535541 ] } },
{ "type": "Feature", "properties": { "name": "INVUR" }, "geometry": { "type": "Point", "coordinates": [ -86.299828732063247, 12.138993076098075 ] } },
{ "type": "Feature", "properties": { "name": "Aldea SOS" }, "geometry": { "type": "Point", "coordinates": [ -86.304601211673173, 12.13819704789716 ] } },
{ "type": "Feature", "properties": { "name": "Sitel" }, "geometry": { "type": "Point", "coordinates": [ -86.302256069792449, 12.138589705088339 ] } },
{ "type": "Feature", "properties": { "name": "ENACAL" }, "geometry": { "type": "Point", "coordinates": [ -86.307471418837466, 12.14005792696109 ] } },
{ "type": "Feature", "properties": { "name": "Ferretería 35 Avenida" }, "geometry": { "type": "Point", "coordinates": [ -86.304850943322165, 12.143774552445791 ] } },
{ "type": "Feature", "properties": { "name": "El Seminario" }, "geometry": { "type": "Point", "coordinates": [ -86.304508595367381, 12.144411607759478 ] } },
{ "type": "Feature", "properties": { "name": "Lubricantes Gary's" }, "geometry": { "type": "Point", "coordinates": [ -86.300147633989098, 12.145191897447457 ] } },
{ "type": "Feature", "properties": { "name": "Cerrajeria Lico" }, "geometry": { "type": "Point", "coordinates": [ -86.297406514731136, 12.146225195950391 ] } },
{ "type": "Feature", "properties": { "name": "American Boutique" }, "geometry": { "type": "Point", "coordinates": [ -86.295481335245739, 12.149142402730853 ] } },
{ "type": "Feature", "properties": { "name": "Casino Atlantic City" }, "geometry": { "type": "Point", "coordinates": [ -86.292449880487951, 12.14886050173113 ] } },
{ "type": "Feature", "properties": { "name": "Pulpería El Carmen" }, "geometry": { "type": "Point", "coordinates": [ -86.291370015684905, 12.152477506006052 ] } },
{ "type": "Feature", "properties": { "name": "MTI" }, "geometry": { "type": "Point", "coordinates": [ -86.283504187394101, 12.152156968364803 ] } },
{ "type": "Feature", "properties": { "name": "Estadio Nacional" }, "geometry": { "type": "Point", "coordinates": [ -86.282045682698808, 12.14984469498209 ] } },
{ "type": "Feature", "properties": { "name": "27 De Mayo" }, "geometry": { "type": "Point", "coordinates": [ -86.282141532939633, 12.145823416667376 ] } },
{ "type": "Feature", "properties": { "name": "Mangueras" }, "geometry": { "type": "Point", "coordinates": [ -86.279159844848579, 12.145489961357162 ] } },
{ "type": "Feature", "properties": { "name": "Central Line" }, "geometry": { "type": "Point", "coordinates": [ -86.276137822401267, 12.144917808330833 ] } },
{ "type": "Feature", "properties": { "name": "Plaza Inter" }, "geometry": { "type": "Point", "coordinates": [ -86.273874786537519, 12.145336889685634 ] } },
{ "type": "Feature", "properties": { "name": "El Redentor" }, "geometry": { "type": "Point", "coordinates": [ -86.267135176118416, 12.144169396944424 ] } },
{ "type": "Feature", "properties": { "name": "Funeraria La Católica y La Auxiliadora" }, "geometry": { "type": "Point", "coordinates": [ -86.261567417987436, 12.144194425991003 ] } },
{ "type": "Feature", "properties": { "name": "Taller Lacayo" }, "geometry": { "type": "Point", "coordinates": [ -86.259291266720538, 12.143485620046219 ] } },
{ "type": "Feature", "properties": { "name": "Autoservicios Mayorga" }, "geometry": { "type": "Point", "coordinates": [ -86.256719030735965, 12.142630062147836 ] } },
{ "type": "Feature", "properties": { "name": "Infinitus" }, "geometry": { "type": "Point", "coordinates": [ -86.250027839510693, 12.14200608804035 ] } },
{ "type": "Feature", "properties": { "name": "Bar Neptuno" }, "geometry": { "type": "Point", "coordinates": [ -86.245711973559679, 12.141708810629085 ] } },
{ "type": "Feature", "properties": { "name": "Plaza El Edén" }, "geometry": { "type": "Point", "coordinates": [ -86.242029779210057, 12.140950817595051 ] } },
{ "type": "Feature", "properties": { "name": "Escuela de Comercio" }, "geometry": { "type": "Point", "coordinates": [ -86.23991487553667, 12.14082619774827 ] } },
{ "type": "Feature", "properties": { "name": "Cementerio Oriental" }, "geometry": { "type": "Point", "coordinates": [ -86.237986012958586, 12.139674668963513 ] } },
{ "type": "Feature", "properties": { "name": "Comedor Jenny" }, "geometry": { "type": "Point", "coordinates": [ -86.238354142562031, 12.136089546481113 ] } },
{ "type": "Feature", "properties": { "name": "Distribuidora Miguelito" }, "geometry": { "type": "Point", "coordinates": [ -86.236109881487721, 12.135431656951631 ] } },
{ "type": "Feature", "properties": { "name": "Colegio San Rafael" }, "geometry": { "type": "Point", "coordinates": [ -86.234220814276739, 12.135173893090091 ] } },
{ "type": "Feature", "properties": { "name": "Sucursal Rubenia - DISSUR" }, "geometry": { "type": "Point", "coordinates": [ -86.233164036176504, 12.131043665260259 ] } },
{ "type": "Feature", "properties": { "name": "Pista La Sabana" }, "geometry": { "type": "Point", "coordinates": [ -86.229606168662215, 12.129966394921906 ] } },
{ "type": "Feature", "properties": { "name": "Conchita Palacios" }, "geometry": { "type": "Point", "coordinates": [ -86.224829107644325, 12.129133101460498 ] } },
{ "type": "Feature", "properties": { "name": "Primero de Mayo" }, "geometry": { "type": "Point", "coordinates": [ -86.221924225510065, 12.128875946291352 ] } },
{ "type": "Feature", "properties": { "name": "Frente a Telerepuestos Electrónicos" }, "geometry": { "type": "Point", "coordinates": [ -86.219604326288817, 12.128669115365678 ] } },
{ "type": "Feature", "properties": { "name": "Mercado Iván Montenegro Sureste" }, "geometry": { "type": "Point", "coordinates": [ -86.214177244331353, 12.127880697240355 ] } },
{ "type": "Feature", "properties": { "name": "Colegio Inmaculada Concepción" }, "geometry": { "type": "Point", "coordinates": [ -86.209618833253614, 12.127306310728468 ] } },
{ "type": "Feature", "properties": { "name": "El Madroño" }, "geometry": { "type": "Point", "coordinates": [ -86.207593401782503, 12.126930587505871 ] } },
{ "type": "Feature", "properties": { "name": "Pulpería Karla" }, "geometry": { "type": "Point", "coordinates": [ -86.203787239923685, 12.125519908072521 ] } },
{ "type": "Feature", "properties": { "name": "Ferretería Donalds" }, "geometry": { "type": "Point", "coordinates": [ -86.200656790821611, 12.124318514816867 ] } },
{ "type": "Feature", "properties": { "name": "Entrada a Laureles Norte" }, "geometry": { "type": "Point", "coordinates": [ -86.198689839675481, 12.124101316672059 ] } },
{ "type": "Feature", "properties": { "name": "Terminal 175" }, "geometry": { "type": "Point", "coordinates": [ -86.198351803634083, 12.126914515182298 ] } }
]
}
