{
"type": "FeatureCollection",
"features": [
{ "type": "Feature", "properties": { "name": null }, "geometry": { "type": "LineString", "coordinates": [ [ -86.209028101122783, 12.110541847653254 ], [ -86.209207764179595, 12.109917007964668 ], [ -86.209273341195342, 12.109575778476174 ], [ -86.20954957314521, 12.109011892497083 ], [ -86.209828500040928, 12.10831432349041 ], [ -86.209938543663242, 12.108177918761275 ], [ -86.210029722664558, 12.108138569541202 ], [ -86.211590186144619, 12.10858142359856 ], [ -86.212498742222976, 12.108767805035024 ], [ -86.213581481634918, 12.108927309497528 ], [ -86.21471650299641, 12.109002757885744 ], [ -86.215896440122094, 12.109000474232865 ], [ -86.215992020868327, 12.108892703361214 ], [ -86.216609971952266, 12.108884271408549 ], [ -86.216592814130351, 12.111116621583138 ], [ -86.216498311362443, 12.112047288971826 ], [ -86.216918633083893, 12.112012507576237 ], [ -86.21698771352925, 12.112064855331511 ], [ -86.216901834588072, 12.112627153894373 ], [ -86.216904170207826, 12.112846293672742 ], [ -86.217093984227347, 12.114154277739035 ], [ -86.21697738290348, 12.11475890640247 ], [ -86.21684784583951, 12.116130909508248 ], [ -86.21659497008703, 12.117847989432173 ], [ -86.216162341446193, 12.120398908638997 ], [ -86.215784150711585, 12.122962011577389 ], [ -86.215338945656782, 12.125393700116659 ], [ -86.214901196618825, 12.128092271409729 ], [ -86.215677520687365, 12.128168416991256 ], [ -86.216036217980303, 12.128439712894432 ], [ -86.216218575982992, 12.128502596593016 ], [ -86.216551222132694, 12.128492057426683 ], [ -86.21697864054488, 12.12834029338539 ], [ -86.21919532333996, 12.128739815551532 ], [ -86.220682663955884, 12.12889913242333 ], [ -86.223407972864834, 12.129127919716028 ], [ -86.22525167515397, 12.129416165077457 ], [ -86.226503208007813, 12.129532710264606 ], [ -86.227270099765875, 12.129640384973992 ], [ -86.227359751631212, 12.129686581450981 ], [ -86.228300736891327, 12.129828859523748 ], [ -86.22905630987681, 12.12576257497642 ], [ -86.229904768662664, 12.126016747023348 ], [ -86.230359406027944, 12.124432251744901 ], [ -86.231093778772703, 12.124653665347534 ], [ -86.231018679614962, 12.124999881727051 ], [ -86.234908294963674, 12.125548891101973 ], [ -86.236179141596125, 12.125802272907112 ], [ -86.236622550020357, 12.125861029346765 ], [ -86.237791348036524, 12.125840477768456 ], [ -86.237941636183564, 12.125871480789838 ], [ -86.238098482032171, 12.125995580666553 ], [ -86.238198734017871, 12.126121261374562 ], [ -86.237935707302682, 12.126360326820572 ], [ -86.238345608566831, 12.126898267203927 ], [ -86.241689407548904, 12.124163410943398 ], [ -86.241935186610647, 12.124087703357468 ], [ -86.24259661615433, 12.123534650885746 ], [ -86.242682495095494, 12.123384201444203 ], [ -86.243809072293317, 12.122432055637489 ], [ -86.244045868202207, 12.122342295014418 ], [ -86.244298115133986, 12.122380412542972 ], [ -86.245311863932102, 12.123550811241032 ], [ -86.245809710262577, 12.124062672422339 ], [ -86.245966286616607, 12.124305077168879 ], [ -86.245981018987251, 12.124657881074803 ], [ -86.24579982879446, 12.125488729355505 ], [ -86.245631484510199, 12.125636718444714 ], [ -86.245602019768896, 12.12574158425404 ], [ -86.245466374160983, 12.126552492424151 ], [ -86.245176847144918, 12.126915129970643 ], [ -86.24451362097065, 12.127561974357745 ], [ -86.243920822714657, 12.128268363523144 ], [ -86.24552278836083, 12.12949169549845 ], [ -86.24499637560433, 12.130219596877392 ], [ -86.244657620910687, 12.130746726919888 ], [ -86.244582611584462, 12.131151778486894 ], [ -86.244552697685506, 12.13158027881331 ], [ -86.243231994554804, 12.13144590596278 ], [ -86.242600209415471, 12.131507295920551 ], [ -86.242035887753985, 12.131514146301217 ], [ -86.242072089859946, 12.134979274622617 ], [ -86.242036336911639, 12.135473724692751 ], [ -86.241929976382011, 12.136114751934715 ], [ -86.242469504541631, 12.136178160765624 ], [ -86.242603982339674, 12.136222072689561 ], [ -86.242678273013652, 12.136280212065703 ], [ -86.242752473856129, 12.136410893879969 ], [ -86.242897821269111, 12.13650609483873 ], [ -86.245393790286045, 12.137396626144939 ], [ -86.245516500153855, 12.137512377431429 ], [ -86.245688168204637, 12.137780853476668 ], [ -86.245991439444552, 12.138774396919747 ], [ -86.246553425486297, 12.138588299919384 ], [ -86.246946887580762, 12.139799113703763 ], [ -86.246952007977868, 12.140255264216348 ], [ -86.25130677098069, 12.140628948738405 ], [ -86.251412323026585, 12.139772679081373 ], [ -86.254841911118277, 12.140071100347171 ], [ -86.256823684466568, 12.140423795561597 ], [ -86.256483222973898, 12.142319699980716 ], [ -86.259067137057144, 12.14280702287067 ], [ -86.258816417261329, 12.144282949757894 ], [ -86.259872746203939, 12.144999306181596 ], [ -86.26025479969428, 12.14529745812777 ], [ -86.260345709201033, 12.145335396731435 ], [ -86.260453327372062, 12.145282177299757 ], [ -86.26161709482264, 12.144271093897952 ], [ -86.26198639223594, 12.144063221068071 ], [ -86.262209623584056, 12.14399287623338 ], [ -86.262437436340107, 12.143940973852793 ], [ -86.262969508482882, 12.143921828809679 ], [ -86.263596263056613, 12.144063923638123 ], [ -86.264098870458085, 12.144121007447719 ], [ -86.264742243864561, 12.144042495251037 ], [ -86.265101480146683, 12.142334190582298 ], [ -86.266002670039711, 12.137443787335268 ], [ -86.266000873409141, 12.137316970260768 ], [ -86.265638762518122, 12.136313848587189 ], [ -86.265260122625861, 12.134920081071369 ], [ -86.265192299821905, 12.134584416500942 ], [ -86.265156726536659, 12.133950323720155 ], [ -86.264387409327327, 12.131763745948843 ], [ -86.264221490494364, 12.130671811634175 ], [ -86.264207925933576, 12.130262104570241 ], [ -86.264274221601539, 12.130045526047953 ], [ -86.264549285741523, 12.129719516196802 ], [ -86.264651783515461, 12.129649518878828 ], [ -86.265652327078911, 12.129383054641966 ], [ -86.265856064985357, 12.129396052903603 ], [ -86.266301000545567, 12.129550011994899 ], [ -86.266539413421981, 12.129507504188506 ], [ -86.266692216851808, 12.129389378120687 ], [ -86.266875024012123, 12.12908137183744 ], [ -86.267047500546681, 12.128952179475277 ], [ -86.267503395553376, 12.128749388618719 ], [ -86.268511844291325, 12.12840800756033 ], [ -86.269437468360081, 12.127987494351402 ], [ -86.27359792576695, 12.125419784855644 ], [ -86.274577538584268, 12.124852946215498 ], [ -86.275237081665892, 12.124553453977756 ], [ -86.27609281680553, 12.124286106370583 ], [ -86.27670924075349, 12.124259494554019 ], [ -86.277367795688278, 12.124348288426656 ], [ -86.278827108867333, 12.124756511508215 ], [ -86.28175974894387, 12.12523517159755 ], [ -86.281863145033086, 12.125286989794223 ], [ -86.282565088596101, 12.125432168518726 ], [ -86.282772779089782, 12.125507875723015 ], [ -86.282863778428066, 12.12562275389914 ], [ -86.282835750991183, 12.125805961652576 ], [ -86.282761729811767, 12.126001377262369 ], [ -86.281332240700166, 12.127938574956335 ], [ -86.281165962541081, 12.128211276317071 ], [ -86.280966716211054, 12.128643470076248 ], [ -86.280787232817289, 12.129115272746045 ], [ -86.280658504237081, 12.129623961509713 ], [ -86.280447579808367, 12.130994746426003 ], [ -86.280435272888965, 12.131298710527215 ], [ -86.280509294068381, 12.131686898791594 ], [ -86.280613318978268, 12.132004211538902 ], [ -86.28089682728195, 12.132435257422486 ], [ -86.281083048040358, 12.1327833080215 ], [ -86.281183210194541, 12.133279694311968 ], [ -86.28116236927994, 12.133703009561748 ], [ -86.280999235224343, 12.134605318702659 ], [ -86.280743574694483, 12.135053486103741 ], [ -86.280730638954395, 12.135227202365721 ], [ -86.280811666993003, 12.135382211978085 ], [ -86.280952522829551, 12.13547056302559 ], [ -86.281066608870645, 12.135639799990038 ], [ -86.281316699845746, 12.136288906623893 ], [ -86.281610448943653, 12.136808823122635 ], [ -86.282512537151959, 12.137910919791874 ], [ -86.282698488415775, 12.13820398592904 ], [ -86.282861802134434, 12.1386172815278 ], [ -86.282969150810871, 12.13910698241021 ], [ -86.282974001713427, 12.139639100766658 ], [ -86.282398630773926, 12.145355595522847 ], [ -86.282061942205445, 12.149047996666075 ], [ -86.281818229268879, 12.151126766552844 ], [ -86.28184338209681, 12.151244356067107 ], [ -86.282220225358515, 12.152113761617599 ], [ -86.282509572711518, 12.152665964395142 ], [ -86.282555207127956, 12.15284555299678 ], [ -86.282372579630689, 12.154527005773897 ], [ -86.282222201652132, 12.154674627458864 ], [ -86.282050174275227, 12.154745232923473 ], [ -86.277632529202506, 12.154530694121588 ], [ -86.27484972811537, 12.154204362972065 ], [ -86.273727822157014, 12.154111012518463 ], [ -86.273426796705323, 12.156398396561418 ], [ -86.276597849658259, 12.156853201371801 ], [ -86.277602705135095, 12.156921786466871 ] ] } },
{ "type": "Feature", "properties": { "name": "Colonia Rubenia" }, "geometry": { "type": "Point", "coordinates": [ -86.227878349044744, 12.129797856962517 ] } },
{ "type": "Feature", "properties": { "name": "Panadería Maritza Lucía" }, "geometry": { "type": "Point", "coordinates": [ -86.216785682421857, 12.116079528685566 ] } },
{ "type": "Feature", "properties": { "name": "Huembes Noroeste" }, "geometry": { "type": "Point", "coordinates": [ -86.244812939623316, 12.123053967696416 ] } },
{ "type": "Feature", "properties": { "name": "Taller Changai" }, "geometry": { "type": "Point", "coordinates": [ -86.248875750158803, 12.140472361374997 ] } },
{ "type": "Feature", "properties": { "name": "Farmacia Valle" }, "geometry": { "type": "Point", "coordinates": [ -86.236798979142165, 12.125885357495132 ] } },
{ "type": "Feature", "properties": { "name": "Agencia Z Gas" }, "geometry": { "type": "Point", "coordinates": [ -86.216562001916088, 12.111197602773924 ] } },
{ "type": "Feature", "properties": { "name": "Colegio Villa Venezuela Oeste" }, "geometry": { "type": "Point", "coordinates": [ -86.215519237534295, 12.124175706836999 ] } },
{ "type": "Feature", "properties": { "name": "Bloquera" }, "geometry": { "type": "Point", "coordinates": [ -86.212946103234458, 12.108871184314809 ] } },
{ "type": "Feature", "properties": { "name": "Panadería San José" }, "geometry": { "type": "Point", "coordinates": [ -86.215921323455476, 12.121555790415623 ] } },
{ "type": "Feature", "properties": { "name": "Semáforo Iván Montenegro" }, "geometry": { "type": "Point", "coordinates": [ -86.214910000108617, 12.127691079566894 ] } },
{ "type": "Feature", "properties": { "name": "Catedral Este" }, "geometry": { "type": "Point", "coordinates": [ -86.265162296091418, 12.133825349300187 ] } },
{ "type": "Feature", "properties": { "name": "Sastrería Estilo y La Moda" }, "geometry": { "type": "Point", "coordinates": [ -86.241913716875359, 12.135935327695657 ] } },
{ "type": "Feature", "properties": { "name": "Policía de Tránsito" }, "geometry": { "type": "Point", "coordinates": [ -86.245495299913131, 12.125978103051176 ] } },
{ "type": "Feature", "properties": { "name": "Huembes Sureste" }, "geometry": { "type": "Point", "coordinates": [ -86.242264598825329, 12.123871998099162 ] } },
{ "type": "Feature", "properties": { "name": "Terminal 195" }, "geometry": { "type": "Point", "coordinates": [ -86.209053433613789, 12.110547995913942 ] } },
{ "type": "Feature", "properties": { "name": "Cruz Azul" }, "geometry": { "type": "Point", "coordinates": [ -86.265541295309802, 12.140224877625824 ] } },
{ "type": "Feature", "properties": { "name": "Black Power Gym" }, "geometry": { "type": "Point", "coordinates": [ -86.233314593818108, 12.125365595344523 ] } },
{ "type": "Feature", "properties": { "name": "Ferretería Jenny" }, "geometry": { "type": "Point", "coordinates": [ -86.239103966329694, 12.126376223523383 ] } },
{ "type": "Feature", "properties": { "name": "Almacenes Tropigás" }, "geometry": { "type": "Point", "coordinates": [ -86.218503440908151, 12.128663055348881 ] } },
{ "type": "Feature", "properties": { "name": "MITRAB" }, "geometry": { "type": "Point", "coordinates": [ -86.28160371157901, 12.15465337556161 ] } },
{ "type": "Feature", "properties": { "name": "Agencia Tropigás" }, "geometry": { "type": "Point", "coordinates": [ -86.216290441205729, 12.119336526299861 ] } },
{ "type": "Feature", "properties": { "name": "Cafetín Nareli" }, "geometry": { "type": "Point", "coordinates": [ -86.231980146463542, 12.125175009780309 ] } },
{ "type": "Feature", "properties": { "name": "Iglesia Pentecostal" }, "geometry": { "type": "Point", "coordinates": [ -86.256459327787354, 12.142177252934008 ] } },
{ "type": "Feature", "properties": { "name": "Inss Sucursal" }, "geometry": { "type": "Point", "coordinates": [ -86.274387275407108, 12.156566390782569 ] } },
{ "type": "Feature", "properties": { "name": "Metrocentro Norte" }, "geometry": { "type": "Point", "coordinates": [ -86.265120883756836, 12.129621678033317 ] } },
{ "type": "Feature", "properties": { "name": "Ministerio de Defensa" }, "geometry": { "type": "Point", "coordinates": [ -86.264881123407491, 12.143685677224363 ] } },
{ "type": "Feature", "properties": { "name": "Canal 2, 195" }, "geometry": { "type": "Point", "coordinates": [ -86.282786882639741, 12.140709920967609 ] } },
{ "type": "Feature", "properties": { "name": "Parque Colombia" }, "geometry": { "type": "Point", "coordinates": [ -86.243512179091908, 12.131413322731962 ] } },
{ "type": "Feature", "properties": { "name": "Autoservicios Plaza España" }, "geometry": { "type": "Point", "coordinates": [ -86.282066793107987, 12.126818256874392 ] } },
{ "type": "Feature", "properties": { "name": "Estadio Dennis Martínez" }, "geometry": { "type": "Point", "coordinates": [ -86.282290922771367, 12.152378710198887 ] } },
{ "type": "Feature", "properties": { "name": "Naciones Unidas" }, "geometry": { "type": "Point", "coordinates": [ -86.280456832455783, 12.130598213712824 ] } },
{ "type": "Feature", "properties": { "name": "Colegio Simón Bolívar" }, "geometry": { "type": "Point", "coordinates": [ -86.265851034419754, 12.136862659012932 ] } },
{ "type": "Feature", "properties": { "name": "Barber Shop" }, "geometry": { "type": "Point", "coordinates": [ -86.216584010640574, 12.109116677006636 ] } },
{ "type": "Feature", "properties": { "name": "Iglesia Morava" }, "geometry": { "type": "Point", "coordinates": [ -86.251172922003363, 12.140684803771157 ] } },
{ "type": "Feature", "properties": { "name": "Parque Las Madres" }, "geometry": { "type": "Point", "coordinates": [ -86.281253188955162, 12.136318064130062 ] } },
{ "type": "Feature", "properties": { "name": "Panadería Norma" }, "geometry": { "type": "Point", "coordinates": [ -86.282432497260146, 12.144308330078493 ] } },
{ "type": "Feature", "properties": { "name": "Leche Agria 10 de Junio" }, "geometry": { "type": "Point", "coordinates": [ -86.241988097380883, 12.132823180556681 ] } },
{ "type": "Feature", "properties": { "name": "Billares Mario Piquete" }, "geometry": { "type": "Point", "coordinates": [ -86.244465111945303, 12.137103910413821 ] } },
{ "type": "Feature", "properties": { "name": "Semáforo El Paraisito" }, "geometry": { "type": "Point", "coordinates": [ -86.246317168566563, 12.138705280210381 ] } },
{ "type": "Feature", "properties": { "name": "Mercado Iván Montenegro Sur" }, "geometry": { "type": "Point", "coordinates": [ -86.215896619785156, 12.128371823074696 ] } },
{ "type": "Feature", "properties": { "name": "Escuela de Manejo" }, "geometry": { "type": "Point", "coordinates": [ -86.244772605267073, 12.12898458735447 ] } },
{ "type": "Feature", "properties": { "name": "Entrada Villa Milagro" }, "geometry": { "type": "Point", "coordinates": [ -86.209518850762493, 12.108998454078382 ] } },
{ "type": "Feature", "properties": { "name": "Parque San Sebastián" }, "geometry": { "type": "Point", "coordinates": [ -86.27757791163323, 12.156951907700217 ] } },
{ "type": "Feature", "properties": { "name": "Policía Nacional Distrito IV" }, "geometry": { "type": "Point", "coordinates": [ -86.260856581103113, 12.145000272212004 ] } },
{ "type": "Feature", "properties": { "name": "Pulpería Kevin" }, "geometry": { "type": "Point", "coordinates": [ -86.217011788378855, 12.114246851710934 ] } },
{ "type": "Feature", "properties": { "name": "Semáforo CST" }, "geometry": { "type": "Point", "coordinates": [ -86.282157433120162, 12.147478479955609 ] } },
{ "type": "Feature", "properties": { "name": "Cafetín Doña Chepita" }, "geometry": { "type": "Point", "coordinates": [ -86.278517279925836, 12.154527532680717 ] } },
{ "type": "Feature", "properties": { "name": "UCA" }, "geometry": { "type": "Point", "coordinates": [ -86.271601779374095, 12.126810264622815 ] } },
{ "type": "Feature", "properties": { "name": "ENEL Central" }, "geometry": { "type": "Point", "coordinates": [ -86.276817038587581, 12.124383156042146 ] } },
{ "type": "Feature", "properties": { "name": "Plaza Rubenia" }, "geometry": { "type": "Point", "coordinates": [ -86.225693466610707, 12.129534730263636 ] } },
{ "type": "Feature", "properties": { "name": "Palí" }, "geometry": { "type": "Point", "coordinates": [ -86.222718246389704, 12.129129061456345 ] } },
{ "type": "Feature", "properties": { "name": "Entrada Barrio Colombia" }, "geometry": { "type": "Point", "coordinates": [ -86.245306923198058, 12.129701863173544 ] } },
{ "type": "Feature", "properties": { "name": "Club de billares" }, "geometry": { "type": "Point", "coordinates": [ -86.256700076283494, 12.140800553628802 ] } }
]
}
