{
"type": "FeatureCollection",
"features": [
{ "type": "Feature", "properties": { "name": "Ruta 262: INATEC -> Comarca Los Vanegas", "attributes": { "operator": "Cooperativa Las Jaguitas", "to": "Comarca Los Vanegas", "ref": "262", "network": "IRTRAMMA", "from": "INATEC" } }, "geometry": { "type": "LineString", "coordinates": [ [ -86.298951976345933, 12.126242462839823 ], [ -86.299242042351182, 12.126009369538181 ], [ -86.299327831460815, 12.125866650290993 ], [ -86.299417034168528, 12.125588852546505 ], [ -86.295691091864583, 12.126053019655764 ], [ -86.295589402574421, 12.126304380958418 ], [ -86.295207977904766, 12.129231730238583 ], [ -86.295144916171836, 12.12942020507726 ], [ -86.295002712862356, 12.129590675447989 ], [ -86.294409734943315, 12.130096025921883 ], [ -86.294255314545978, 12.130314185267327 ], [ -86.29418659342673, 12.130532432259951 ], [ -86.294100804317097, 12.131052711291458 ], [ -86.292521476216095, 12.130859670675445 ], [ -86.292075193182939, 12.130868101933654 ], [ -86.291731767249829, 12.13091842600058 ], [ -86.291723682412282, 12.131389697691493 ], [ -86.291281351966362, 12.132821248407547 ], [ -86.291164391316372, 12.133094032598184 ], [ -86.291022547333014, 12.133359966176556 ], [ -86.290119201483307, 12.134598995347689 ], [ -86.289599885417545, 12.135379313782195 ], [ -86.289531433792888, 12.135638746101653 ], [ -86.289318173744462, 12.138764560743654 ], [ -86.289132132649115, 12.143290919829939 ], [ -86.288042296546408, 12.143233133270146 ], [ -86.288033043898992, 12.142629183930557 ], [ -86.287899913573895, 12.142336825237056 ], [ -86.287573825125733, 12.142088025891834 ], [ -86.287372692333648, 12.142000028326875 ], [ -86.287212073560838, 12.141970168867084 ], [ -86.286811335112588, 12.141979829280903 ], [ -86.285684398588657, 12.142096017685221 ], [ -86.285371335712142, 12.142200262264842 ], [ -86.284791742690828, 12.142490425563922 ], [ -86.284568601174257, 12.142549090502428 ], [ -86.283830365673779, 12.142515630411845 ], [ -86.282701542687747, 12.142290630953328 ], [ -86.282061942205445, 12.149047996666075 ], [ -86.280107028484153, 12.148899405843249 ], [ -86.276119317106421, 12.148518356066811 ], [ -86.274385927934176, 12.148568501159588 ], [ -86.274216505671589, 12.150011024774917 ], [ -86.274086070292327, 12.150667560999134 ], [ -86.274051035996251, 12.150735093860231 ], [ -86.273938027933511, 12.150820980881187 ], [ -86.273712281302622, 12.150857074498285 ], [ -86.271005926846144, 12.150559016598695 ], [ -86.270810273777258, 12.150465664866154 ], [ -86.270719723596628, 12.150372400920027 ], [ -86.270575723656592, 12.150114124604858 ], [ -86.27034961769958, 12.149957015904265 ], [ -86.265225537487439, 12.149621370286853 ], [ -86.264937986764991, 12.149641129655961 ], [ -86.265577407584217, 12.147255153274957 ], [ -86.266109479727007, 12.145442713770858 ], [ -86.263221126593962, 12.145502871012184 ], [ -86.263596263056613, 12.144063923638123 ], [ -86.262969508482882, 12.143921828809679 ], [ -86.262437436340107, 12.143940973852793 ], [ -86.26198639223594, 12.144063221068071 ], [ -86.26161709482264, 12.144271093897952 ], [ -86.261404014437261, 12.144432948295712 ], [ -86.260453327372062, 12.145282177299757 ], [ -86.260224167143093, 12.144693601291575 ], [ -86.259943713111383, 12.14363632160439 ], [ -86.257432921892274, 12.143173853731495 ], [ -86.256697830495284, 12.142664049154348 ], [ -86.255850719182362, 12.141973593922938 ], [ -86.255625421709098, 12.141915894899247 ], [ -86.255542237713769, 12.142065280017057 ], [ -86.255478008170982, 12.142518791995382 ], [ -86.255395183501776, 12.142554974559923 ], [ -86.254284416652951, 12.14245916101058 ], [ -86.25371165082781, 12.142370460993746 ], [ -86.25184980256995, 12.142239869925096 ], [ -86.246790490889779, 12.141795403138225 ], [ -86.244749428732732, 12.14171153311205 ], [ -86.244551979033275, 12.141686328188024 ], [ -86.244253918022011, 12.141596486226886 ], [ -86.243530594555239, 12.141283488190073 ], [ -86.243070836792839, 12.141143411789008 ], [ -86.242664169463708, 12.141086766452309 ], [ -86.241185362842998, 12.140983048370449 ], [ -86.240791182096331, 12.140468585010085 ], [ -86.238945503513563, 12.13835460265266 ], [ -86.239383611877628, 12.134550252814783 ], [ -86.2384738879894, 12.134194124668699 ], [ -86.23720429899835, 12.133504350082212 ], [ -86.236743193763019, 12.133219358660416 ], [ -86.235020584374197, 12.132037848600127 ], [ -86.234416197851047, 12.131705956888661 ], [ -86.234220544782147, 12.131660902491101 ], [ -86.234175179860316, 12.131454776329514 ], [ -86.234547441714042, 12.129436013771553 ], [ -86.234676709283434, 12.128277848780813 ], [ -86.237484124209374, 12.12740107580548 ], [ -86.237994996111425, 12.127149715536646 ], [ -86.238345608566831, 12.126898267203927 ], [ -86.241689407548904, 12.124163410943398 ], [ -86.241935186610647, 12.124087703357468 ], [ -86.24259661615433, 12.123534650885746 ], [ -86.242682495095494, 12.123384201444203 ], [ -86.244014247504211, 12.122253588302428 ], [ -86.243019542990098, 12.12118980808815 ], [ -86.23844280628056, 12.117678214195818 ], [ -86.237564613258812, 12.118747717334966 ], [ -86.23683733720479, 12.118042005594356 ], [ -86.23559254171559, 12.116194498752039 ], [ -86.234883142135715, 12.115228713522121 ], [ -86.234737076070516, 12.115211850016703 ], [ -86.234496776732016, 12.115237057443673 ], [ -86.23430804069082, 12.115295816210169 ], [ -86.234161076310343, 12.115261123068585 ], [ -86.234016178055015, 12.11514474730755 ], [ -86.233880442615586, 12.115133592797966 ], [ -86.232316745200521, 12.115455316772714 ], [ -86.232140675404835, 12.114418561412505 ], [ -86.231805873298441, 12.111917824865312 ], [ -86.231565573959941, 12.111909393008167 ], [ -86.230835962286179, 12.111758322189136 ], [ -86.230411598145949, 12.111559295037786 ], [ -86.229600149949803, 12.111514852061392 ], [ -86.229116676663892, 12.111543573116149 ], [ -86.226735063182645, 12.111842289468875 ], [ -86.225711522747915, 12.112102183842003 ], [ -86.224685107704275, 12.112305426511087 ], [ -86.223777000783556, 12.11105996986781 ], [ -86.223631114381433, 12.110606755712503 ], [ -86.223613597233381, 12.10877939897494 ], [ -86.223572364561832, 12.1081747567706 ], [ -86.223634797474091, 12.107671384942991 ], [ -86.223746368232369, 12.107260149393863 ], [ -86.223591947835033, 12.105254115390114 ], [ -86.222994568171089, 12.105277479242519 ], [ -86.222908689229925, 12.104764791530362 ], [ -86.222904646811145, 12.104255704043249 ], [ -86.222859641215422, 12.103743892715583 ], [ -86.22201890794102, 12.103832869081666 ], [ -86.221411826472007, 12.103995626365672 ], [ -86.220175564977993, 12.104414859862915 ], [ -86.219437688803623, 12.103542400223212 ], [ -86.218970115698241, 12.102920267039643 ], [ -86.218562999211471, 12.102308760443172 ], [ -86.218317399812804, 12.102021891166892 ], [ -86.218086263290203, 12.101819079848502 ], [ -86.216699713649149, 12.101125356817034 ], [ -86.216347843552356, 12.100781305362174 ], [ -86.215961567980187, 12.100311384992843 ], [ -86.215383681757913, 12.099760918343007 ], [ -86.214802920926743, 12.099421783945024 ], [ -86.211202293604941, 12.097937879241972 ], [ -86.210415010089932, 12.097689477673457 ], [ -86.209251781628524, 12.097547094633542 ], [ -86.208794628980428, 12.097449683861113 ], [ -86.208165269292394, 12.097230707125902 ], [ -86.207506714357592, 12.096747604989842 ], [ -86.206151066762331, 12.096207495768109 ], [ -86.20515546393294, 12.095913680812114 ], [ -86.204719421694037, 12.095724479620202 ], [ -86.204434835412002, 12.095490569140759 ], [ -86.203409139020607, 12.094319169083747 ], [ -86.202712315854711, 12.09368225767591 ], [ -86.202348408333108, 12.09330297362065 ], [ -86.199946582757974, 12.091926373521359 ], [ -86.198802218917535, 12.091166218796365 ], [ -86.197154708686455, 12.090137450375684 ], [ -86.195181469333377, 12.089063879930855 ], [ -86.194763573063184, 12.088761009662713 ], [ -86.194561541955778, 12.088531309390229 ], [ -86.194083278898532, 12.087663804784867 ], [ -86.193877025709284, 12.086877373766335 ], [ -86.193910173543259, 12.086021370884879 ], [ -86.193859867887355, 12.085763822842715 ], [ -86.19353189297712, 12.085232299820571 ], [ -86.192949066020788, 12.084390609741929 ], [ -86.191821141350047, 12.083241297077079 ], [ -86.192161333348153, 12.081707408483897 ], [ -86.192487242133211, 12.080699510117107 ], [ -86.192780092915854, 12.080251427186088 ], [ -86.193304080221083, 12.079637672697189 ], [ -86.193430293518489, 12.079402869727565 ], [ -86.193674186118145, 12.078610528968634 ], [ -86.194115528417228, 12.077822665860255 ], [ -86.194238328116569, 12.077452055798393 ], [ -86.194347024265952, 12.076789981036036 ], [ -86.194490664879879, 12.076610868317347 ], [ -86.195345501704239, 12.075847419873194 ], [ -86.195928867649741, 12.07518086110429 ], [ -86.196883507302175, 12.0736954164463 ], [ -86.197514573789277, 12.072217606055547 ] ] } },
{ "type": "Feature", "properties": { "name": "Terminal INATEC", "attributes": { "official_status": "IRTRAMMA:bus_station" } }, "geometry": { "type": "Point", "coordinates": [ -86.298993837838182, 12.126271797099212 ] } },
{ "type": "Feature", "properties": { "name": "Alcaldía de Managua", "attributes": { "official_status": "IRTRAMMA:bus_stop" } }, "geometry": { "type": "Point", "coordinates": [ -86.295327633500619, 12.127849079666371 ] } },
{ "type": "Feature", "properties": { "name": "Farmacia Buendía", "attributes": { "official_status": "IRTRAMMA:bus_stop" } }, "geometry": { "type": "Point", "coordinates": [ -86.293943149984756, 12.131005373318942 ] } },
{ "type": "Feature", "properties": { "name": "Pulpería Gema", "attributes": { "official_status": "IRTRAMMA:bus_stop" } }, "geometry": { "type": "Point", "coordinates": [ -86.291665830907974, 12.131181463508145 ] } },
{ "type": "Feature", "properties": { "name": "Farmacia David", "attributes": { "official_status": "IRTRAMMA:bus_stop" } }, "geometry": { "type": "Point", "coordinates": [ -86.290733379643058, 12.133710474658676 ] } },
{ "type": "Feature", "properties": { "name": "Templo Mormón Altagracia", "attributes": { "official_status": "IRTRAMMA:bus_stop" } }, "geometry": { "type": "Point", "coordinates": [ -86.289477624707402, 12.135575161494247 ] } },
{ "type": "Feature", "properties": { "name": "Variedades Joshep", "attributes": { "official_status": "IRTRAMMA:bus_stop" } }, "geometry": { "type": "Point", "coordinates": [ -86.289215675970539, 12.13980218749688 ] } },
{ "type": "Feature", "properties": { "name": "Bar Leo", "attributes": { "official_status": "none" } }, "geometry": { "type": "Point", "coordinates": [ -86.289079311710395, 12.143167618401479 ] } },
{ "type": "Feature", "properties": { "name": "Plaza El Carmen", "attributes": { "official_status": "IRTRAMMA:bus_stop" } }, "geometry": { "type": "Point", "coordinates": [ -86.285584416097535, 12.142056322181661 ] } },
{ "type": "Feature", "properties": { "name": "Farmacia El Cristo", "attributes": { "official_status": "IRTRAMMA:bus_stop" } }, "geometry": { "type": "Point", "coordinates": [ -86.2833011681399, 12.142375466837068 ] } },
{ "type": "Feature", "properties": { "name": "Panadería Norma", "attributes": { "official_status": "IRTRAMMA:bus_stop" } }, "geometry": { "type": "Point", "coordinates": [ -86.282432497260146, 12.144308330078493 ] } },
{ "type": "Feature", "properties": { "name": "Semáforo CST", "attributes": { "official_status": "IRTRAMMA:bus_stop" } }, "geometry": { "type": "Point", "coordinates": [ -86.282157433120162, 12.147478479955609 ] } },
{ "type": "Feature", "properties": { "name": "El Boer", "attributes": { "official_status": "IRTRAMMA:bus_stop" } }, "geometry": { "type": "Point", "coordinates": [ -86.281587272409311, 12.148973701265025 ] } },
{ "type": "Feature", "properties": { "name": "Comedor Getsemani", "attributes": { "official_status": "IRTRAMMA:bus_stop" } }, "geometry": { "type": "Point", "coordinates": [ -86.278312464041065, 12.148676168174527 ] } },
{ "type": "Feature", "properties": { "name": "INSS", "attributes": { "official_status": "IRTRAMMA:bus_stop" } }, "geometry": { "type": "Point", "coordinates": [ -86.276052033291634, 12.148490165914174 ] } },
{ "type": "Feature", "properties": { "name": "Parque Luis Alfonso Velásquez", "attributes": { "official_status": "IRTRAMMA:bus_stop" } }, "geometry": { "type": "Point", "coordinates": [ -86.272057764212306, 12.150622070713728 ] } },
{ "type": "Feature", "properties": { "name": "Sector Este Dupla Sur", "attributes": { "official_status": "IRTRAMMA:bus_stop" } }, "geometry": { "type": "Point", "coordinates": [ -86.266373404757459, 12.149660274287752 ] } },
{ "type": "Feature", "properties": { "name": "El Novillo", "attributes": { "official_status": "IRTRAMMA:bus_stop" } }, "geometry": { "type": "Point", "coordinates": [ -86.265033118353571, 12.149394093526897 ] } },
{ "type": "Feature", "properties": { "name": "Barrio 19 de Julio", "attributes": { "official_status": "IRTRAMMA:bus_stop" } }, "geometry": { "type": "Point", "coordinates": [ -86.265753387548372, 12.146871817816104 ] } },
{ "type": "Feature", "properties": { "name": "El Panal", "attributes": { "official_status": "none" } }, "geometry": { "type": "Point", "coordinates": [ -86.26336261125121, 12.145440693892446 ] } },
{ "type": "Feature", "properties": { "name": "Funeraria La Católica y La Auxiliadora", "attributes": { "official_status": "IRTRAMMA:bus_stop" } }, "geometry": { "type": "Point", "coordinates": [ -86.261567417987436, 12.144194425991003 ] } },
{ "type": "Feature", "properties": { "name": "Taller Lacayo", "attributes": { "official_status": "none" } }, "geometry": { "type": "Point", "coordinates": [ -86.259291266720538, 12.143485620046219 ] } },
{ "type": "Feature", "properties": { "name": "Autoservicios Mayorga", "attributes": { "official_status": "IRTRAMMA:bus_stop" } }, "geometry": { "type": "Point", "coordinates": [ -86.256719030735965, 12.142630062147836 ] } },
{ "type": "Feature", "properties": { "name": "Casa del Adulto Mayor", "attributes": { "official_status": "IRTRAMMA:bus_stop" } }, "geometry": { "type": "Point", "coordinates": [ -86.253289801970396, 12.142304506803651 ] } },
{ "type": "Feature", "properties": { "name": "Infinitus", "attributes": { "official_status": "IRTRAMMA:bus_stop" } }, "geometry": { "type": "Point", "coordinates": [ -86.250027839510693, 12.14200608804035 ] } },
{ "type": "Feature", "properties": { "name": "Bar Neptuno", "attributes": { "official_status": "IRTRAMMA:bus_stop" } }, "geometry": { "type": "Point", "coordinates": [ -86.245711973559679, 12.141708810629085 ] } },
{ "type": "Feature", "properties": { "name": "Plaza El Edén", "attributes": { "official_status": "IRTRAMMA:bus_stop" } }, "geometry": { "type": "Point", "coordinates": [ -86.242029779210057, 12.140950817595051 ] } },
{ "type": "Feature", "properties": { "name": "Barrio Ducalí", "attributes": { "official_status": "IRTRAMMA:bus_stop" } }, "geometry": { "type": "Point", "coordinates": [ -86.239089144127504, 12.137429559937956 ] } },
{ "type": "Feature", "properties": { "name": "Hospital Japonés", "attributes": { "official_status": "IRTRAMMA:bus_stop" } }, "geometry": { "type": "Point", "coordinates": [ -86.238308148819485, 12.134012415697601 ] } },
{ "type": "Feature", "properties": { "name": "Colonia Nicarao", "attributes": { "official_status": "IRTRAMMA:bus_stop" } }, "geometry": { "type": "Point", "coordinates": [ -86.23461831878997, 12.129105260561046 ] } },
{ "type": "Feature", "properties": { "name": "Semáforos Nicarao", "attributes": { "official_status": "IRTRAMMA:bus_stop" } }, "geometry": { "type": "Point", "coordinates": [ -86.234775074807047, 12.128326680287193 ] } },
{ "type": "Feature", "properties": { "name": "Mercado Huembes Sureste", "attributes": { "official_status": "IRTRAMMA:bus_stop" } }, "geometry": { "type": "Point", "coordinates": [ -86.242264598825329, 12.123871998099162 ] } },
{ "type": "Feature", "properties": { "name": "Tecnológico Central", "attributes": { "official_status": "IRTRAMMA:bus_stop" } }, "geometry": { "type": "Point", "coordinates": [ -86.243465646360207, 12.121571775233461 ] } },
{ "type": "Feature", "properties": { "name": "Sport Gym La Fuente", "attributes": { "official_status": "IRTRAMMA:bus_stop" } }, "geometry": { "type": "Point", "coordinates": [ -86.239359626859539, 12.118325520130867 ] } },
{ "type": "Feature", "properties": { "name": "Palí La Fuente", "attributes": { "official_status": "IRTRAMMA:bus_stop" } }, "geometry": { "type": "Point", "coordinates": [ -86.238222629204429, 12.117844827556025 ] } },
{ "type": "Feature", "properties": { "name": "Avenida Pochote", "attributes": { "official_status": "IRTRAMMA:bus_stop" } }, "geometry": { "type": "Point", "coordinates": [ -86.235925547191414, 12.116572784175048 ] } },
{ "type": "Feature", "properties": { "name": "Vuelta II", "attributes": { "official_status": "IRTRAMMA:bus_stop" } }, "geometry": { "type": "Point", "coordinates": [ -86.232360133828749, 12.115343508293646 ] } },
{ "type": "Feature", "properties": { "name": "Pulpería Jonathan", "attributes": { "official_status": "IRTRAMMA:bus_stop" } }, "geometry": { "type": "Point", "coordinates": [ -86.23192786451402, 12.112365766893422 ] } },
{ "type": "Feature", "properties": { "name": "Parque Germán Pomares Ordóñez", "attributes": { "official_status": "IRTRAMMA:bus_stop" } }, "geometry": { "type": "Point", "coordinates": [ -86.230143271370594, 12.111495265529923 ] } },
{ "type": "Feature", "properties": { "name": "Centro de Salud Carlos Rugama", "attributes": { "official_status": "IRTRAMMA:bus_stop" } }, "geometry": { "type": "Point", "coordinates": [ -86.227684941764068, 12.111669963286779 ] } },
{ "type": "Feature", "properties": { "name": "René Polanco", "attributes": { "official_status": "IRTRAMMA:bus_stop" } }, "geometry": { "type": "Point", "coordinates": [ -86.225473828523732, 12.112057916619577 ] } },
{ "type": "Feature", "properties": { "name": "Tanque Rojo", "attributes": { "official_status": "none" } }, "geometry": { "type": "Point", "coordinates": [ -86.223678545428427, 12.109198976295032 ] } },
{ "type": "Feature", "properties": { "name": "Farmacia Balgar", "attributes": { "official_status": "IRTRAMMA:bus_stop" } }, "geometry": { "type": "Point", "coordinates": [ -86.223702081288863, 12.107754211676051 ] } },
{ "type": "Feature", "properties": { "name": "Salomón Moreno", "attributes": { "official_status": "none" } }, "geometry": { "type": "Point", "coordinates": [ -86.223674233515055, 12.105435404777808 ] } },
{ "type": "Feature", "properties": { "name": "Escuela Filemon Rivero Quiteno", "attributes": { "official_status": "none" } }, "geometry": { "type": "Point", "coordinates": [ -86.222958815222782, 12.104560401277265 ] } },
{ "type": "Feature", "properties": { "name": "Farmacia Ramos", "attributes": { "official_status": "IRTRAMMA:bus_stop" } }, "geometry": { "type": "Point", "coordinates": [ -86.221723002886435, 12.103838578324286 ] } },
{ "type": "Feature", "properties": { "name": "El Chilamate", "attributes": { "official_status": "IRTRAMMA:bus_stop" } }, "geometry": { "type": "Point", "coordinates": [ -86.218584289283712, 12.10229558519228 ] } },
{ "type": "Feature", "properties": { "name": "Cementerio Las Jagüitas", "attributes": { "official_status": "IRTRAMMA:bus_stop" } }, "geometry": { "type": "Point", "coordinates": [ -86.213151188613821, 12.09867438677902 ] } },
{ "type": "Feature", "properties": { "name": "Campo de béisbol Las Jagüitas", "attributes": { "official_status": "IRTRAMMA:bus_stop" } }, "geometry": { "type": "Point", "coordinates": [ -86.2075724710364, 12.096735659180506 ] } },
{ "type": "Feature", "properties": { "name": "Residencial Bruselas", "attributes": { "official_status": "IRTRAMMA:bus_stop" } }, "geometry": { "type": "Point", "coordinates": [ -86.202934109898379, 12.093831230608377 ] } },
{ "type": "Feature", "properties": { "name": "Iglesia de Dios de la Profecía Libre", "attributes": { "official_status": "IRTRAMMA:bus_stop" } }, "geometry": { "type": "Point", "coordinates": [ -86.199551144369906, 12.091586965669844 ] } },
{ "type": "Feature", "properties": { "name": "Residencial Mayales", "attributes": { "official_status": "none" } }, "geometry": { "type": "Point", "coordinates": [ -86.197849375895657, 12.09051489430378 ] } },
{ "type": "Feature", "properties": { "name": "Iglesia Católica", "attributes": { "official_status": "IRTRAMMA:bus_stop" } }, "geometry": { "type": "Point", "coordinates": [ -86.195499383112406, 12.089166564117372 ] } },
{ "type": "Feature", "properties": { "name": "Pulpería Nohelia", "attributes": { "official_status": "IRTRAMMA:bus_stop" } }, "geometry": { "type": "Point", "coordinates": [ -86.193914485456631, 12.086534885102195 ] } },
{ "type": "Feature", "properties": { "name": "Iglesia Solo Cristo Salva", "attributes": { "official_status": "IRTRAMMA:bus_stop" } }, "geometry": { "type": "Point", "coordinates": [ -86.191997121314216, 12.083359619237074 ] } },
{ "type": "Feature", "properties": { "name": "Rótulo Clínica Nuevos Horizontes", "attributes": { "official_status": "IRTRAMMA:bus_stop" } }, "geometry": { "type": "Point", "coordinates": [ -86.194349539548725, 12.077045165943272 ] } },
{ "type": "Feature", "properties": { "name": "Colegio Pablo Antonio Cuadra", "attributes": { "official_status": "IRTRAMMA:bus_stop" } }, "geometry": { "type": "Point", "coordinates": [ -86.196731602187626, 12.074104419653001 ] } },
{ "type": "Feature", "properties": { "name": "Terminal 262", "attributes": { "official_status": "IRTRAMMA:bus_station" } }, "geometry": { "type": "Point", "coordinates": [ -86.197569281190084, 12.07222287674848 ] } }
]
}
