{
"type": "FeatureCollection",
"features": [
{ "type": "Feature", "properties": { "name": null }, "geometry": { "type": "LineString", "coordinates": [ [ -86.296951068882095, 12.123167353851123 ], [ -86.297164867919705, 12.123206613027453 ], [ -86.296993199868908, 12.124465274967431 ], [ -86.297136031999088, 12.125499005158424 ], [ -86.297647622553384, 12.12541890658165 ], [ -86.297891874479149, 12.125489695456661 ], [ -86.29837714439563, 12.125423824916005 ], [ -86.300295317021806, 12.125127495109227 ], [ -86.302512628637601, 12.124697403514638 ], [ -86.303728678037714, 12.124417672342169 ], [ -86.305851846211738, 12.123840380049888 ], [ -86.308882851811887, 12.122891046375022 ], [ -86.309566020585436, 12.12275245338826 ], [ -86.310603035749438, 12.122699756416226 ], [ -86.311239222633645, 12.122747974146044 ], [ -86.312040609698613, 12.122935663113374 ], [ -86.312811903201563, 12.123221368152636 ], [ -86.313113826968561, 12.123373398591363 ], [ -86.311688649770289, 12.127546780339218 ], [ -86.311197720467533, 12.128863650614473 ], [ -86.311197091646818, 12.128965353410386 ], [ -86.310694933402999, 12.130436614386999 ], [ -86.310412323414624, 12.131084504136563 ], [ -86.308336406624548, 12.136736983369534 ], [ -86.308047149103061, 12.137136053831162 ], [ -86.307564663963973, 12.137531786405507 ], [ -86.307042293626253, 12.137753803890657 ], [ -86.306569330629145, 12.137836094343484 ], [ -86.306179641458911, 12.137867008146314 ], [ -86.299462309258843, 12.138980253950391 ], [ -86.299652123278378, 12.14012757025478 ], [ -86.299624095841523, 12.140446278109231 ], [ -86.299492312989329, 12.141014049630314 ], [ -86.299450182002516, 12.141371310347518 ], [ -86.29939098302529, 12.142435624771361 ], [ -86.299498331701741, 12.143217413215991 ], [ -86.299410566298477, 12.145234051467906 ], [ -86.298477665875922, 12.145179602523557 ], [ -86.298434726405347, 12.146129998465787 ], [ -86.297511078630208, 12.146084068301922 ], [ -86.297367887173934, 12.149330073106237 ], [ -86.300102179235722, 12.14942728929452 ], [ -86.300009742592991, 12.151756954410612 ], [ -86.299843284770844, 12.153816910075616 ], [ -86.299685450775414, 12.158010627367695 ], [ -86.293123616951036, 12.157748845798324 ], [ -86.292931197817182, 12.159755450708317 ], [ -86.289937472301332, 12.159857229521053 ], [ -86.286151792030992, 12.15965806266207 ], [ -86.283057994192475, 12.159411474915686 ], [ -86.276491219634039, 12.159200715976864 ], [ -86.276597849658259, 12.156853201371801 ], [ -86.273426796705323, 12.156398396561418 ], [ -86.273656945081115, 12.154683321416336 ], [ -86.272558574983208, 12.154649160309072 ], [ -86.270617046159657, 12.154678227986734 ], [ -86.264767217029473, 12.154059375564872 ], [ -86.264062309026016, 12.154105567806138 ], [ -86.263451634295862, 12.154190575560005 ], [ -86.262454324667445, 12.154199708622846 ], [ -86.260952431343924, 12.153909118998335 ], [ -86.258523027489545, 12.153715831496001 ], [ -86.258728112868909, 12.152499372806417 ], [ -86.257732420208001, 12.152457483392102 ], [ -86.257840667199744, 12.151200007526 ], [ -86.252425173509423, 12.150898964164551 ], [ -86.249109042638096, 12.150753008946641 ], [ -86.249136800580374, 12.149331126940449 ], [ -86.249156922842744, 12.149122467685551 ], [ -86.24923166267439, 12.148866561288479 ], [ -86.249453366886499, 12.14842974588851 ], [ -86.249767507741339, 12.148055457575005 ], [ -86.250405401424615, 12.147386180984467 ], [ -86.25060087483044, 12.146999508543429 ], [ -86.250668877297429, 12.146794887197029 ], [ -86.250718104975007, 12.146553732395427 ], [ -86.250778381930573, 12.145640749601581 ], [ -86.25130677098069, 12.140628948738405 ], [ -86.246952007977868, 12.140255264216348 ], [ -86.246946887580762, 12.139799113703763 ], [ -86.246553425486297, 12.138588299919384 ], [ -86.245991439444552, 12.138774396919747 ], [ -86.245688168204637, 12.137780853476668 ], [ -86.245516500153855, 12.137512377431429 ], [ -86.245393790286045, 12.137396626144939 ], [ -86.242897821269111, 12.13650609483873 ], [ -86.242752473856129, 12.136410893879969 ], [ -86.242678273013652, 12.136280212065703 ], [ -86.242603982339674, 12.136222072689561 ], [ -86.242469504541631, 12.136178160765624 ], [ -86.241019084683899, 12.136026401100814 ], [ -86.240806004298506, 12.137801579780987 ], [ -86.232974491651547, 12.136891201690974 ], [ -86.233000542794798, 12.137484625230764 ], [ -86.233169426068201, 12.138345029930486 ], [ -86.232935864094344, 12.138434258226575 ], [ -86.232783150496033, 12.138537977300919 ], [ -86.232551385152732, 12.138789678121181 ], [ -86.231941249411747, 12.1390482288906 ], [ -86.230569791467488, 12.139040763943234 ], [ -86.230083533404198, 12.13866066611147 ], [ -86.229761846700953, 12.138478960186514 ], [ -86.229298405845881, 12.138412126801592 ], [ -86.228687820947243, 12.138479574948182 ], [ -86.228051184905411, 12.138599453447842 ], [ -86.227972133160392, 12.138591725018721 ], [ -86.227629605542575, 12.138405188775129 ], [ -86.227302349284571, 12.138337916255983 ], [ -86.226627714506179, 12.138287066651262 ], [ -86.224273589472631, 12.138270116780859 ], [ -86.223427017148865, 12.138494504874171 ], [ -86.220993750538767, 12.138396406462894 ], [ -86.219198108117368, 12.138237973500356 ], [ -86.218751106431966, 12.138060921918541 ], [ -86.216983401615877, 12.137029875150947 ], [ -86.215990314069288, 12.138528316762244 ], [ -86.215755045296362, 12.13902715139162 ], [ -86.215489772792978, 12.140539282065408 ], [ -86.216071521770971, 12.140751021829407 ], [ -86.218237449752507, 12.141730590492042 ], [ -86.218754879356169, 12.141809805946346 ], [ -86.218779762689536, 12.143108514491381 ], [ -86.21874068597468, 12.143560180443172 ], [ -86.218654807033516, 12.14395449833196 ], [ -86.218644296744699, 12.14438824733514 ], [ -86.218414507695016, 12.145053755162815 ], [ -86.217985382483789, 12.145993525259678 ], [ -86.217916751196086, 12.146329175451859 ], [ -86.217848030076851, 12.146765467376776 ], [ -86.217557874240086, 12.149810621072962 ], [ -86.212376391681275, 12.149329897467204 ], [ -86.211541138130102, 12.149214853874131 ], [ -86.210639948237059, 12.149047118469955 ], [ -86.209781607983089, 12.14883731733655 ], [ -86.20946468235087, 12.148796393362421 ], [ -86.209000522843539, 12.148786996655017 ], [ -86.208185211891688, 12.148912754431189 ], [ -86.207412750578854, 12.14888755018891 ], [ -86.202272141365484, 12.148419207510523 ], [ -86.202235400270368, 12.148671425908885 ], [ -86.199637472468709, 12.148447046391443 ], [ -86.199600641542048, 12.149092169926597 ], [ -86.19912848702873, 12.153391782619556 ], [ -86.199033535103183, 12.154791688498802 ], [ -86.198905345512145, 12.155917421406302 ], [ -86.198859351769613, 12.156968329479069 ] ] } },
{ "type": "Feature", "properties": { "name": "Gaspar García" }, "geometry": { "type": "Point", "coordinates": [ -86.299857478152319, 12.154924907939204 ] } },
{ "type": "Feature", "properties": { "name": "Parque Independencia" }, "geometry": { "type": "Point", "coordinates": [ -86.296960950350211, 12.123127919012695 ] } },
{ "type": "Feature", "properties": { "name": "Cuadro Gadala María" }, "geometry": { "type": "Point", "coordinates": [ -86.295638720083531, 12.157897695128851 ] } },
{ "type": "Feature", "properties": { "name": "Acahualinca Este" }, "geometry": { "type": "Point", "coordinates": [ -86.290670677236221, 12.159899293402088 ] } },
{ "type": "Feature", "properties": { "name": "Pedro Joaquin Chamorro Norte" }, "geometry": { "type": "Point", "coordinates": [ -86.284738292931436, 12.159631893460517 ] } },
{ "type": "Feature", "properties": { "name": "UPOLI Norte" }, "geometry": { "type": "Point", "coordinates": [ -86.219603877131192, 12.138326674893429 ] } },
{ "type": "Feature", "properties": { "name": "Semáforos Villa Progreso" }, "geometry": { "type": "Point", "coordinates": [ -86.227069236468324, 12.138358818163232 ] } },
{ "type": "Feature", "properties": { "name": "Llantera Vargas" }, "geometry": { "type": "Point", "coordinates": [ -86.258750031761849, 12.152752904613527 ] } },
{ "type": "Feature", "properties": { "name": "Best Brand" }, "geometry": { "type": "Point", "coordinates": [ -86.297507575200598, 12.147542413001535 ] } },
{ "type": "Feature", "properties": { "name": "Barrio Camilo Chamorro" }, "geometry": { "type": "Point", "coordinates": [ -86.198801500265304, 12.156866110475542 ] } },
{ "type": "Feature", "properties": { "name": "Inss Sucursal" }, "geometry": { "type": "Point", "coordinates": [ -86.274387275407108, 12.156566390782569 ] } },
{ "type": "Feature", "properties": { "name": "Parque José de San Martí" }, "geometry": { "type": "Point", "coordinates": [ -86.300057532966107, 12.151811665465528 ] } },
{ "type": "Feature", "properties": { "name": "El Zumen Oeste" }, "geometry": { "type": "Point", "coordinates": [ -86.29716729337099, 12.125299197808577 ] } },
{ "type": "Feature", "properties": { "name": "Cristo del Rosario Este" }, "geometry": { "type": "Point", "coordinates": [ -86.279172600925619, 12.159344207705852 ] } },
{ "type": "Feature", "properties": { "name": "Cristo del Rosario Oeste" }, "geometry": { "type": "Point", "coordinates": [ -86.282101018920315, 12.15943579999913 ] } },
{ "type": "Feature", "properties": { "name": "RUPAP" }, "geometry": { "type": "Point", "coordinates": [ -86.224071378702178, 12.138350474965154 ] } },
{ "type": "Feature", "properties": { "name": "Palacio Nacional" }, "geometry": { "type": "Point", "coordinates": [ -86.272009165355456, 12.154747164913541 ] } },
{ "type": "Feature", "properties": { "name": "Pulpería La Providencia" }, "geometry": { "type": "Point", "coordinates": [ -86.293093613220549, 12.158535506980547 ] } },
{ "type": "Feature", "properties": { "name": "San Sebastián" }, "geometry": { "type": "Point", "coordinates": [ -86.278046293222374, 12.159301089942312 ] } },
{ "type": "Feature", "properties": { "name": "Talleres Pellas" }, "geometry": { "type": "Point", "coordinates": [ -86.299705034048614, 12.157902085963288 ] } },
{ "type": "Feature", "properties": { "name": "Plantel Central" }, "geometry": { "type": "Point", "coordinates": [ -86.287503217544426, 12.159827723329148 ] } },
{ "type": "Feature", "properties": { "name": "La Rocargo" }, "geometry": { "type": "Point", "coordinates": [ -86.199881993889051, 12.148561212118677 ] } }
]
}
