{
"type": "FeatureCollection",
"features": [
{ "type": "Feature", "properties": { "name": "Ruta ESQ: Vistas de Esquipulas -> Mercado Roberto Huembes", "attributes": { "operator": "Cooperativa TICONTAN", "to": "Mercado Roberto Huembes", "ref": "ESQ", "network": "IRTRAMMA", "from": "Vistas de Esquipulas" } }, "geometry": { "type": "LineString", "coordinates": [ [ -86.196861408746202, 12.074026853156418 ], [ -86.199970298281485, 12.074392900061506 ], [ -86.207154305271629, 12.074815869404437 ], [ -86.209640841978086, 12.07508572613153 ], [ -86.21013599336267, 12.07515828521815 ], [ -86.210878810271126, 12.075350311955429 ], [ -86.211494246072277, 12.075651176992032 ], [ -86.212916279167032, 12.076210653295741 ], [ -86.213138881694448, 12.076352608472821 ], [ -86.213384750587707, 12.076344175494098 ], [ -86.214334539337599, 12.076170508779663 ], [ -86.214016625558557, 12.075392916222029 ], [ -86.215802476343384, 12.074961690456092 ], [ -86.216546910219336, 12.074814024679783 ], [ -86.216947918162163, 12.07477247444964 ], [ -86.217509814372363, 12.074792327203117 ], [ -86.21774526280835, 12.074770893256829 ], [ -86.218250295661093, 12.074661263865377 ], [ -86.219302043195725, 12.07431946232561 ], [ -86.219625616361071, 12.074178823734497 ], [ -86.223282927377298, 12.078193802466711 ], [ -86.223488911071954, 12.077989479750096 ], [ -86.223440581709667, 12.077821611743724 ], [ -86.223052868833037, 12.077377301253497 ], [ -86.223477682130905, 12.0770057242988 ], [ -86.224184207101857, 12.076589961577286 ], [ -86.224429986163599, 12.076367278341406 ], [ -86.224552426536818, 12.076078712215923 ], [ -86.224559702890616, 12.075236554138211 ], [ -86.224661392180792, 12.075047514013852 ], [ -86.224822549942758, 12.074900551036885 ], [ -86.225068329004486, 12.074806294404897 ], [ -86.226463502472242, 12.074392812217345 ], [ -86.226895322629332, 12.074248923428751 ], [ -86.227048305722207, 12.074156511296641 ], [ -86.227223567034144, 12.074189365043086 ], [ -86.227719616734035, 12.074365053458287 ], [ -86.228481298263446, 12.074811828578987 ], [ -86.22941976824076, 12.075205193866584 ], [ -86.228593677505486, 12.07700967724784 ], [ -86.227475364808299, 12.078818364920071 ], [ -86.227342144651658, 12.079136531055592 ], [ -86.227298127202729, 12.079572405749492 ], [ -86.227307200187099, 12.079802025869148 ], [ -86.227409967455586, 12.080261089833165 ], [ -86.227754830693172, 12.081263807177686 ], [ -86.227757166312912, 12.081424469993104 ], [ -86.229531608493645, 12.081792087936813 ], [ -86.230294008675259, 12.082070721798175 ], [ -86.232315667222181, 12.082516781329273 ], [ -86.232557314033599, 12.082526795260588 ], [ -86.232642204827954, 12.082222072919718 ], [ -86.232735000796808, 12.081657250828515 ], [ -86.23281090843831, 12.081639770312435 ], [ -86.233947367104236, 12.081520920341172 ], [ -86.234885567586986, 12.08154955677661 ], [ -86.236146802245884, 12.081405496150049 ], [ -86.236339311211296, 12.081411293713353 ], [ -86.236903632872767, 12.081541211803414 ], [ -86.237136745689, 12.081630019873321 ], [ -86.237365366928799, 12.081823974487344 ], [ -86.237423487927671, 12.082108493705356 ], [ -86.237420613318776, 12.082721188431995 ], [ -86.237516463559587, 12.082971272887232 ], [ -86.237675016207234, 12.083197112916313 ], [ -86.23802437102124, 12.083566660930906 ], [ -86.238361418915829, 12.084181284820598 ], [ -86.238676368254445, 12.084309356906887 ], [ -86.239333575716302, 12.084373919972414 ], [ -86.239684367834755, 12.084434266660402 ], [ -86.239854149423451, 12.084496721515283 ], [ -86.240044322769108, 12.084659490569313 ], [ -86.240421166030785, 12.085358263230138 ], [ -86.24070269804082, 12.085643657095661 ], [ -86.241272409594018, 12.085970950516863 ], [ -86.241390538053878, 12.085986673942761 ], [ -86.241644312121636, 12.085957159578317 ], [ -86.241818764949812, 12.086002397367718 ], [ -86.242511905023036, 12.088161065514837 ], [ -86.242612426503342, 12.088376975291396 ], [ -86.242827483182367, 12.088571012854871 ], [ -86.242985766335408, 12.088629250448323 ], [ -86.243579822232817, 12.088627669337354 ], [ -86.243902676745918, 12.08868379877096 ], [ -86.24412770472459, 12.088805807780835 ], [ -86.244308266096709, 12.088968047177183 ], [ -86.244554584147622, 12.089264417103591 ], [ -86.24475320165692, 12.089786006295174 ], [ -86.245099681862001, 12.090408609239431 ], [ -86.245378878252311, 12.091064413764485 ], [ -86.245394149612139, 12.091378700442135 ], [ -86.245351120310033, 12.09240790327973 ], [ -86.245381573198173, 12.092687228791101 ], [ -86.245488023559332, 12.093077229960455 ], [ -86.245711434570495, 12.093467318398934 ], [ -86.245959728915039, 12.093753581991194 ], [ -86.246958745342496, 12.094416493159192 ], [ -86.247498632828254, 12.094897579246409 ], [ -86.247804509182487, 12.095246117977922 ], [ -86.247947700638775, 12.095497332608495 ], [ -86.248171830302169, 12.096017416413421 ], [ -86.248236688665671, 12.096458621658419 ], [ -86.248193389868987, 12.097171768712061 ], [ -86.248209469712563, 12.097308793916474 ], [ -86.248287623142303, 12.097522851739487 ], [ -86.248570502625256, 12.097932433382624 ], [ -86.248809095164731, 12.098763804013899 ], [ -86.249234447451741, 12.099536673346385 ], [ -86.249847278138589, 12.101096898148267 ], [ -86.250130876273772, 12.102865721621578 ], [ -86.25021208397547, 12.103173318986531 ], [ -86.250382404553335, 12.103550393171533 ], [ -86.250623512375597, 12.103916399680713 ], [ -86.250722147393802, 12.104272480406202 ], [ -86.250798863519051, 12.10507291371348 ], [ -86.249243430604594, 12.105873959459307 ], [ -86.248949142517517, 12.105980326208279 ], [ -86.248771006596684, 12.105982609886983 ], [ -86.248620808281188, 12.106129467953416 ], [ -86.248587390952594, 12.106299426201064 ], [ -86.248611465802213, 12.106380408852591 ], [ -86.248751423323483, 12.10655194794553 ], [ -86.248960551121613, 12.106610181621761 ], [ -86.249157282168838, 12.106717689913765 ], [ -86.249487772361874, 12.107038457861217 ], [ -86.253217577421537, 12.111131728705182 ], [ -86.253659997698975, 12.111630965909029 ], [ -86.253724586567884, 12.111768159361352 ], [ -86.254790796978625, 12.112977162632957 ], [ -86.254973873633531, 12.113270168340794 ], [ -86.255034869241314, 12.113529973492595 ], [ -86.254923388314566, 12.113790656703829 ], [ -86.254747228687336, 12.114028679224903 ], [ -86.253437395171574, 12.115095562064981 ], [ -86.251614803291616, 12.116447977272149 ], [ -86.251089738008062, 12.116754153708255 ], [ -86.250304700281262, 12.117392591050583 ], [ -86.24416318817832, 12.121950492175822 ], [ -86.244121596180648, 12.122163124991511 ], [ -86.244719604665306, 12.122879453048101 ], [ -86.24443340141579, 12.123113954335778 ] ] } },
{ "type": "Feature", "properties": { "name": "Colegio Pablo Antonio Cuadra", "attributes": { "official_status": "IRTRAMMA:bus_stop" } }, "geometry": { "type": "Point", "coordinates": [ -86.196842094967579, 12.07405724727894 ] } },
{ "type": "Feature", "properties": { "name": "Vistas de Esquipulas", "attributes": { "official_status": "IRTRAMMA:bus_stop" } }, "geometry": { "type": "Point", "coordinates": [ -86.200726679750701, 12.074465020115095 ] } },
{ "type": "Feature", "properties": { "name": "FUTEC", "attributes": { "official_status": "IRTRAMMA:bus_stop" } }, "geometry": { "type": "Point", "coordinates": [ -86.209681176334328, 12.075147568259853 ] } },
{ "type": "Feature", "properties": { "name": "La Ermita", "attributes": { "official_status": "IRTRAMMA:bus_stop" } }, "geometry": { "type": "Point", "coordinates": [ -86.212370283137346, 12.076006153378669 ] } },
{ "type": "Feature", "properties": { "name": "Entrada a Esquipulas", "attributes": { "official_status": "none" } }, "geometry": { "type": "Point", "coordinates": [ -86.220019797107724, 12.074726180633837 ] } },
{ "type": "Feature", "properties": { "name": "Casa España", "attributes": { "official_status": "IRTRAMMA:bus_stop" } }, "geometry": { "type": "Point", "coordinates": [ -86.229275678469193, 12.075227769748766 ] } },
{ "type": "Feature", "properties": { "name": "10½", "attributes": { "official_status": "IRTRAMMA:bus_stop" } }, "geometry": { "type": "Point", "coordinates": [ -86.227878977865444, 12.081473485748099 ] } },
{ "type": "Feature", "properties": { "name": "UNICA", "attributes": { "official_status": "IRTRAMMA:bus_stop" } }, "geometry": { "type": "Point", "coordinates": [ -86.230249182742583, 12.082068262231946 ] } },
{ "type": "Feature", "properties": { "name": "El Parque", "attributes": { "official_status": "IRTRAMMA:bus_stop" } }, "geometry": { "type": "Point", "coordinates": [ -86.232651367643854, 12.082302711497402 ] } },
{ "type": "Feature", "properties": { "name": "El Poste Blanco", "attributes": { "official_status": "IRTRAMMA:bus_stop" } }, "geometry": { "type": "Point", "coordinates": [ -86.236038734917202, 12.08143940310938 ] } },
{ "type": "Feature", "properties": { "name": "La Estancia", "attributes": { "official_status": "IRTRAMMA:bus_stop" } }, "geometry": { "type": "Point", "coordinates": [ -86.239332048580309, 12.08439306928681 ] } },
{ "type": "Feature", "properties": { "name": "Iglesia de Santo Domingo", "attributes": { "official_status": "IRTRAMMA:bus_stop" } }, "geometry": { "type": "Point", "coordinates": [ -86.240528065549597, 12.085509963854605 ] } },
{ "type": "Feature", "properties": { "name": "El Cruce Santo Domingo", "attributes": { "official_status": "IRTRAMMA:bus_stop" } }, "geometry": { "type": "Point", "coordinates": [ -86.242418749728103, 12.087875059456264 ] } },
{ "type": "Feature", "properties": { "name": "Las Calderas", "attributes": { "official_status": "IRTRAMMA:bus_stop" } }, "geometry": { "type": "Point", "coordinates": [ -86.245006526567053, 12.090342115173561 ] } },
{ "type": "Feature", "properties": { "name": "Notre Dame", "attributes": { "official_status": "IRTRAMMA:bus_stop" } }, "geometry": { "type": "Point", "coordinates": [ -86.246422810443988, 12.094090966825725 ] } },
{ "type": "Feature", "properties": { "name": "Viejo Santo Domingo", "attributes": { "official_status": "IRTRAMMA:bus_stop" } }, "geometry": { "type": "Point", "coordinates": [ -86.248152516523575, 12.097006020822853 ] } },
{ "type": "Feature", "properties": { "name": "Cruz Verde", "attributes": { "official_status": "IRTRAMMA:bus_stop" } }, "geometry": { "type": "Point", "coordinates": [ -86.248597362252255, 12.098115308792446 ] } },
{ "type": "Feature", "properties": { "name": "El Barrio", "attributes": { "official_status": "IRTRAMMA:bus_stop" } }, "geometry": { "type": "Point", "coordinates": [ -86.249958309907697, 12.101886712916777 ] } },
{ "type": "Feature", "properties": { "name": "El Establo", "attributes": { "official_status": "IRTRAMMA:bus_stop" } }, "geometry": { "type": "Point", "coordinates": [ -86.250742718813797, 12.104922893037015 ] } },
{ "type": "Feature", "properties": { "name": "Movistar", "attributes": { "official_status": "IRTRAMMA:bus_stop" } }, "geometry": { "type": "Point", "coordinates": [ -86.25080901448176, 12.10865695991742 ] } },
{ "type": "Feature", "properties": { "name": "El Quetzal", "attributes": { "official_status": "IRTRAMMA:bus_stop" } }, "geometry": { "type": "Point", "coordinates": [ -86.253970006303518, 12.114642969577202 ] } },
{ "type": "Feature", "properties": { "name": "Policía Distrito V", "attributes": { "official_status": "IRTRAMMA:bus_stop" } }, "geometry": { "type": "Point", "coordinates": [ -86.250015263096699, 12.117534700021451 ] } },
{ "type": "Feature", "properties": { "name": "Hospital Roberto Calderón", "attributes": { "official_status": "IRTRAMMA:bus_stop" } }, "geometry": { "type": "Point", "coordinates": [ -86.245913465677901, 12.120546197920071 ] } },
{ "type": "Feature", "properties": { "name": "Mercado Huembes Suroeste", "attributes": { "official_status": "IRTRAMMA:bus_stop" } }, "geometry": { "type": "Point", "coordinates": [ -86.244372495639524, 12.123050981538331 ] } }
]
}
