{
"type": "FeatureCollection",
"features": [
{ "type": "Feature", "properties": { "name": null }, "geometry": { "type": "LineString", "coordinates": [ [ -86.225795515226991, 12.148788050491381 ], [ -86.227466830813086, 12.148937958671079 ], [ -86.227852297901492, 12.145040933306941 ], [ -86.228462074316369, 12.145185310881157 ], [ -86.228759416675402, 12.145163970405227 ], [ -86.231593511565265, 12.14542242716526 ], [ -86.233370199534193, 12.145619321341414 ], [ -86.233616607416636, 12.14566639325492 ], [ -86.233705091472132, 12.14574130432397 ], [ -86.233757463253198, 12.145916594386795 ], [ -86.233889066442316, 12.145994930389577 ], [ -86.234021028957557, 12.145985797045142 ], [ -86.234120472459509, 12.145916857848729 ], [ -86.234246326430807, 12.145917560413871 ], [ -86.236049335037563, 12.146227918387174 ], [ -86.237455108625682, 12.146395216465487 ], [ -86.237926274992191, 12.139545218268697 ], [ -86.238107914342649, 12.137483307879389 ], [ -86.239039287629225, 12.13759018896601 ], [ -86.239370765969056, 12.134655466415207 ], [ -86.239769977281327, 12.131501762920646 ], [ -86.242600209415471, 12.131507295920551 ], [ -86.243231994554804, 12.13144590596278 ], [ -86.244552697685506, 12.13158027881331 ], [ -86.244582611584462, 12.131151778486894 ], [ -86.244657620910687, 12.130746726919888 ], [ -86.24499637560433, 12.130219596877392 ], [ -86.24552278836083, 12.12949169549845 ], [ -86.245603726567936, 12.129446025944121 ], [ -86.244083687275676, 12.1282349894657 ], [ -86.244926037517587, 12.127250277237973 ], [ -86.24504344732523, 12.127042830263168 ], [ -86.245317882644514, 12.126756953663833 ], [ -86.245542730960139, 12.126440512941643 ], [ -86.245618009780941, 12.126285498129443 ], [ -86.245911489384255, 12.125006380964786 ], [ -86.245981018987251, 12.124657881074803 ], [ -86.245983803764645, 12.124444020659787 ], [ -86.245897834991951, 12.124112822118052 ], [ -86.245809710262577, 12.123987228291423 ], [ -86.244427831861017, 12.122333951315035 ], [ -86.244324076445707, 12.122109022647219 ], [ -86.244357493774274, 12.121957167144942 ], [ -86.249870275009869, 12.117861954384729 ], [ -86.251039881509783, 12.117031784992243 ], [ -86.251211998718205, 12.116997970378041 ], [ -86.251433163941172, 12.117028271785777 ], [ -86.252054618454736, 12.117821376973405 ], [ -86.252536384941592, 12.118505483198037 ], [ -86.252556327540916, 12.118945246024261 ], [ -86.252522640717757, 12.121174965021797 ], [ -86.252563064905544, 12.12190025424502 ], [ -86.253252701549158, 12.124508749682345 ], [ -86.253404516832177, 12.124775482273051 ], [ -86.253699793066062, 12.125094998933742 ], [ -86.25458948452345, 12.125681422551045 ], [ -86.25470994860305, 12.125809474743461 ], [ -86.255481691263654, 12.126348118854805 ], [ -86.255635033682623, 12.126406348211741 ], [ -86.255942976162046, 12.126805521967912 ], [ -86.256092006667672, 12.127208296025776 ], [ -86.256242743972336, 12.127832129132109 ], [ -86.256154529411432, 12.129098410118473 ], [ -86.256258015332179, 12.12956142937977 ], [ -86.256354045236051, 12.129840891678276 ], [ -86.256361411421381, 12.129986155749146 ], [ -86.256902826043117, 12.131037429646335 ], [ -86.257121835309391, 12.131615672435206 ], [ -86.25723457387754, 12.132061561408362 ], [ -86.257254067319195, 12.132283759101538 ], [ -86.2572047498101, 12.132699522983181 ], [ -86.257276076043681, 12.132853392341488 ], [ -86.257406870749037, 12.132935157358183 ], [ -86.257510536332816, 12.133076028498898 ], [ -86.257755417079267, 12.133793995905238 ], [ -86.257815424540254, 12.133880590987079 ], [ -86.25835333573238, 12.135798497969583 ], [ -86.258912087839093, 12.137995757070618 ], [ -86.259370318465542, 12.139496388817962 ], [ -86.259535608477819, 12.140211616424819 ], [ -86.259687603423885, 12.141108458543902 ], [ -86.259775728153272, 12.142151521122754 ], [ -86.259787046925837, 12.142923913487111 ], [ -86.25971338507253, 12.143022273695609 ], [ -86.259432392051664, 12.144704754564343 ], [ -86.26025479969428, 12.14529745812777 ], [ -86.260380743497109, 12.145333113389702 ], [ -86.26161709482264, 12.144271093897952 ], [ -86.26198639223594, 12.144063221068071 ], [ -86.262209623584056, 12.14399287623338 ], [ -86.262437436340107, 12.143940973852793 ], [ -86.262969508482882, 12.143921828809679 ], [ -86.263596263056613, 12.144063923638123 ], [ -86.264098870458085, 12.144121007447719 ], [ -86.265626635261796, 12.14397241387473 ], [ -86.267895510174881, 12.144352679767843 ], [ -86.27018962774747, 12.144780719756207 ], [ -86.270343329492576, 12.144878727994854 ], [ -86.270500175341184, 12.145119796492832 ], [ -86.270760237615931, 12.145353575643774 ], [ -86.271052100251751, 12.145496899199051 ], [ -86.271568451877073, 12.145631616244998 ], [ -86.272121364934435, 12.145637148951426 ], [ -86.272484913129929, 12.14550146587969 ], [ -86.272851246102775, 12.145296492098444 ], [ -86.273464885273356, 12.145362796830714 ], [ -86.273631343095531, 12.145409868789576 ], [ -86.273862030460478, 12.145537033293531 ], [ -86.274139699714809, 12.14581217562079 ], [ -86.274407307837933, 12.146155729892575 ], [ -86.274580862350831, 12.146263485703971 ], [ -86.274747769330631, 12.146258919036397 ], [ -86.275243729198976, 12.146001429115231 ], [ -86.275845780102401, 12.145787146726292 ], [ -86.278762969156062, 12.146318549170211 ], [ -86.282265230954252, 12.146907999789073 ], [ -86.282974001713427, 12.139639100766658 ], [ -86.282969150810871, 12.13910698241021 ], [ -86.282861802134434, 12.1386172815278 ], [ -86.282698488415775, 12.13820398592904 ], [ -86.282512537151959, 12.137910919791874 ], [ -86.281610448943653, 12.136808823122635 ], [ -86.281316699845746, 12.136288906623893 ], [ -86.281264507727727, 12.136150496249837 ], [ -86.281229832757774, 12.135517373260564 ], [ -86.281368802132221, 12.135265669348763 ], [ -86.28168473961766, 12.135148072778122 ], [ -86.283328836250647, 12.13488679567106 ], [ -86.283806200992629, 12.134918061113165 ], [ -86.284156993111068, 12.135007905326658 ], [ -86.286418950996492, 12.136241833052972 ], [ -86.288307030060651, 12.137321976199061 ], [ -86.288388597088442, 12.136976829706768 ], [ -86.288444472299105, 12.136545352050735 ], [ -86.288427404308734, 12.135812988925924 ], [ -86.288541220855222, 12.13516212464889 ], [ -86.288649378015421, 12.134915514209311 ], [ -86.28880298992901, 12.134668815717133 ], [ -86.289356801301665, 12.134068008643908 ], [ -86.28991761953354, 12.133244125261399 ], [ -86.290173639389508, 12.132748265854586 ], [ -86.290307129040741, 12.132395560479472 ], [ -86.290374412855513, 12.132110567872028 ], [ -86.290433881327331, 12.130666366442604 ], [ -86.290514819534422, 12.130194566517906 ], [ -86.290594769594719, 12.129976319248662 ], [ -86.290834619775566, 12.129539648522064 ], [ -86.291388520979766, 12.128799010475316 ], [ -86.291543480366272, 12.128452886854857 ], [ -86.291717124710686, 12.1278303726 ], [ -86.291959130848241, 12.126026583669921 ], [ -86.294094965267774, 12.125953511429616 ], [ -86.297165676403466, 12.125669829345417 ], [ -86.296993199868908, 12.124465274967431 ], [ -86.297070544814872, 12.123852675958387 ], [ -86.297164867919705, 12.123206613027453 ], [ -86.297931669846236, 12.119938332687985 ], [ -86.297585099809623, 12.119753188660605 ], [ -86.297173491746449, 12.119690478557686 ], [ -86.297658222673746, 12.115317422569492 ], [ -86.298472725141849, 12.107437748420777 ], [ -86.296676903057389, 12.107266297730096 ], [ -86.296784700891479, 12.106408427790297 ], [ -86.296819016535309, 12.105493726531408 ], [ -86.296834108232105, 12.102050788912582 ], [ -86.291551565203832, 12.101848065451289 ], [ -86.291606272604639, 12.101070284020116 ], [ -86.291422028139863, 12.100171726256519 ], [ -86.291343605215559, 12.099600705720665 ], [ -86.291065307140528, 12.09868079882143 ], [ -86.291579592640687, 12.098561429404201 ], [ -86.291764735420756, 12.098463052802476 ], [ -86.293683267373055, 12.097762118467193 ], [ -86.294514748000026, 12.097661106475377 ], [ -86.295341108229891, 12.097503966874843 ], [ -86.296194148423695, 12.097588553490738 ], [ -86.296752002215129, 12.097504669567497 ], [ -86.297289823575724, 12.097323199126194 ] ] } },
{ "type": "Feature", "properties": { "name": "Centro de Salud \"Pedro Altamirano\"" }, "geometry": { "type": "Point", "coordinates": [ -86.245184033667201, 12.12706039563562 ] } },
{ "type": "Feature", "properties": { "name": "Terminal MR4" }, "geometry": { "type": "Point", "coordinates": [ -86.225785094769677, 12.1488439038125 ] } },
{ "type": "Feature", "properties": { "name": "Peluqueria Leysi" }, "geometry": { "type": "Point", "coordinates": [ -86.227533036649533, 12.148722273530582 ] } },
{ "type": "Feature", "properties": { "name": "Iglesia Pio X" }, "geometry": { "type": "Point", "coordinates": [ -86.229727171730985, 12.145350589735553 ] } },
{ "type": "Feature", "properties": { "name": "Parque Amistad" }, "geometry": { "type": "Point", "coordinates": [ -86.231935140867819, 12.145531324943477 ] } },
{ "type": "Feature", "properties": { "name": "McDonald's" }, "geometry": { "type": "Point", "coordinates": [ -86.234632512171459, 12.146033922741108 ] } },
{ "type": "Feature", "properties": { "name": "Parque Maestro Gabriel" }, "geometry": { "type": "Point", "coordinates": [ -86.237537214642657, 12.145981493834681 ] } },
{ "type": "Feature", "properties": { "name": "Óptica Cristal" }, "geometry": { "type": "Point", "coordinates": [ -86.237798265064214, 12.142308985717214 ] } },
{ "type": "Feature", "properties": { "name": "Cementerio Oriental" }, "geometry": { "type": "Point", "coordinates": [ -86.237986012958586, 12.139674668963513 ] } },
{ "type": "Feature", "properties": { "name": "Pulpería Rosita" }, "geometry": { "type": "Point", "coordinates": [ -86.239089144127504, 12.137429559937956 ] } },
{ "type": "Feature", "properties": { "name": "Pulpería Machado" }, "geometry": { "type": "Point", "coordinates": [ -86.239362770963027, 12.135035657785304 ] } },
{ "type": "Feature", "properties": { "name": "Don Bosco" }, "geometry": { "type": "Point", "coordinates": [ -86.240601547739843, 12.131541284346012 ] } },
{ "type": "Feature", "properties": { "name": "Parque Colombia" }, "geometry": { "type": "Point", "coordinates": [ -86.24350840616772, 12.131498425555574 ] } },
{ "type": "Feature", "properties": { "name": "Farmacia San Miguel" }, "geometry": { "type": "Point", "coordinates": [ -86.244639564773479, 12.131415079240472 ] } },
{ "type": "Feature", "properties": { "name": "Colegio República de Colombia" }, "geometry": { "type": "Point", "coordinates": [ -86.245242963149821, 12.129970259261571 ] } },
{ "type": "Feature", "properties": { "name": "Huembes Noroeste" }, "geometry": { "type": "Point", "coordinates": [ -86.245030062427489, 12.12285758381638 ] } },
{ "type": "Feature", "properties": { "name": "El Nancite" }, "geometry": { "type": "Point", "coordinates": [ -86.298005780857181, 12.112508493362149 ] } },
{ "type": "Feature", "properties": { "name": "Cooperativa de Panificadores" }, "geometry": { "type": "Point", "coordinates": [ -86.298385319064721, 12.108977549870168 ] } },
{ "type": "Feature", "properties": { "name": "Hospital Roberto Calderón" }, "geometry": { "type": "Point", "coordinates": [ -86.245489730358372, 12.121181288695142 ] } },
{ "type": "Feature", "properties": { "name": "Comercial Enmanuel" }, "geometry": { "type": "Point", "coordinates": [ -86.297699635008357, 12.115263757990892 ] } },
{ "type": "Feature", "properties": { "name": "Venta y Compra de Vehículos" }, "geometry": { "type": "Point", "coordinates": [ -86.282489450449162, 12.145360074385088 ] } },
{ "type": "Feature", "properties": { "name": "Terminal MR4" }, "geometry": { "type": "Point", "coordinates": [ -86.29731910865398, 12.097370103889046 ] } },
{ "type": "Feature", "properties": { "name": "Plaza Inter" }, "geometry": { "type": "Point", "coordinates": [ -86.273691709882613, 12.14550691076804 ] } },
{ "type": "Feature", "properties": { "name": "El Recreo Sur" }, "geometry": { "type": "Point", "coordinates": [ -86.291425711232534, 12.128821054872358 ] } },
{ "type": "Feature", "properties": { "name": "Colegio Rodolfo Rodríguez Alvarado" }, "geometry": { "type": "Point", "coordinates": [ -86.296798534946845, 12.106813955471861 ] } },
{ "type": "Feature", "properties": { "name": "Semáforos Julio Martínez" }, "geometry": { "type": "Point", "coordinates": [ -86.291961017310328, 12.126394491556379 ] } },
{ "type": "Feature", "properties": { "name": "Centro Comercial Managua" }, "geometry": { "type": "Point", "coordinates": [ -86.249248101844074, 12.118395081272242 ] } },
{ "type": "Feature", "properties": { "name": "Rotonda Cristo Rey" }, "geometry": { "type": "Point", "coordinates": [ -86.257785780135862, 12.133913700863872 ] } },
{ "type": "Feature", "properties": { "name": "Plantel Los Cocos" }, "geometry": { "type": "Point", "coordinates": [ -86.297878938739061, 12.120494290973404 ] } },
{ "type": "Feature", "properties": { "name": "Farmacia Los Cocos" }, "geometry": { "type": "Point", "coordinates": [ -86.297295393130497, 12.119176852398104 ] } },
{ "type": "Feature", "properties": { "name": "El Zumen Oeste" }, "geometry": { "type": "Point", "coordinates": [ -86.29716729337099, 12.125299197808577 ] } },
{ "type": "Feature", "properties": { "name": "Economart" }, "geometry": { "type": "Point", "coordinates": [ -86.281549812661964, 12.136611395490567 ] } },
{ "type": "Feature", "properties": { "name": "Pulpería Rosita" }, "geometry": { "type": "Point", "coordinates": [ -86.297549616355894, 12.116796400056401 ] } },
{ "type": "Feature", "properties": { "name": "Pulpería Papachano" }, "geometry": { "type": "Point", "coordinates": [ -86.288496035596424, 12.136670149547603 ] } },
{ "type": "Feature", "properties": { "name": "El Zumen" }, "geometry": { "type": "Point", "coordinates": [ -86.296396269362631, 12.125815007861492 ] } },
{ "type": "Feature", "properties": { "name": "CECA" }, "geometry": { "type": "Point", "coordinates": [ -86.252651638792543, 12.122655490951667 ] } },
{ "type": "Feature", "properties": { "name": "Tip Top" }, "geometry": { "type": "Point", "coordinates": [ -86.251731763941606, 12.117543131700906 ] } },
{ "type": "Feature", "properties": { "name": "Pulpería El Bulky" }, "geometry": { "type": "Point", "coordinates": [ -86.296873364610008, 12.103365676953134 ] } },
{ "type": "Feature", "properties": { "name": "Agencia Aduanera" }, "geometry": { "type": "Point", "coordinates": [ -86.254107718036579, 12.125471690843831 ] } },
{ "type": "Feature", "properties": { "name": "INSS" }, "geometry": { "type": "Point", "coordinates": [ -86.277968319455724, 12.14620227478793 ] } },
{ "type": "Feature", "properties": { "name": "Pulpería Rodríguez" }, "geometry": { "type": "Point", "coordinates": [ -86.290484366646297, 12.131370112619186 ] } },
{ "type": "Feature", "properties": { "name": "Policía Nacional Distrito IV" }, "geometry": { "type": "Point", "coordinates": [ -86.260856581103113, 12.145000272212004 ] } },
{ "type": "Feature", "properties": { "name": "Camino a San Isidro de Bolas" }, "geometry": { "type": "Point", "coordinates": [ -86.291627832171457, 12.101669233015459 ] } },
{ "type": "Feature", "properties": { "name": "Pulpería María Auxiliadora" }, "geometry": { "type": "Point", "coordinates": [ -86.259074682905521, 12.138777382901706 ] } },
{ "type": "Feature", "properties": { "name": "SINSA" }, "geometry": { "type": "Point", "coordinates": [ -86.286159607373961, 12.13621776932133 ] } },
{ "type": "Feature", "properties": { "name": "Clínica María Auxiliadora" }, "geometry": { "type": "Point", "coordinates": [ -86.258386124240246, 12.136292770871869 ] } },
{ "type": "Feature", "properties": { "name": "Canal 2, 195" }, "geometry": { "type": "Point", "coordinates": [ -86.282934835167026, 12.14074338128508 ] } },
{ "type": "Feature", "properties": { "name": "Plaza España Norte" }, "geometry": { "type": "Point", "coordinates": [ -86.282333682578894, 12.135083873284129 ] } },
{ "type": "Feature", "properties": { "name": "Tornos Fenix" }, "geometry": { "type": "Point", "coordinates": [ -86.289134198774278, 12.134391378442947 ] } },
{ "type": "Feature", "properties": { "name": "El Redentor" }, "geometry": { "type": "Point", "coordinates": [ -86.266723388392165, 12.144218401180773 ] } },
{ "type": "Feature", "properties": { "name": "Colonia Máximo Jerez" }, "geometry": { "type": "Point", "coordinates": [ -86.256305985368343, 12.130070468595568 ] } }
]
}
