{
"type": "FeatureCollection",
"features": [
{ "type": "Feature", "properties": { "name": null }, "geometry": { "type": "LineString", "coordinates": [ [ -86.297289823575724, 12.097323199126194 ], [ -86.296752002215129, 12.097504669567497 ], [ -86.296194148423695, 12.097588553490738 ], [ -86.295341108229891, 12.097503966874843 ], [ -86.294514748000026, 12.097661106475377 ], [ -86.293683267373055, 12.097762118467193 ], [ -86.291764735420756, 12.098463052802476 ], [ -86.29166412410892, 12.09841588472257 ], [ -86.291037818692843, 12.098321460701451 ], [ -86.291035213578525, 12.098481410581796 ], [ -86.291065307140528, 12.09868079882143 ], [ -86.291343605215559, 12.099600705720665 ], [ -86.291422028139863, 12.100171726256519 ], [ -86.291606272604639, 12.101070284020116 ], [ -86.291551565203832, 12.101848065451289 ], [ -86.296834108232105, 12.102050788912582 ], [ -86.296819016535309, 12.105493726531408 ], [ -86.296784700891479, 12.106408427790297 ], [ -86.296676903057389, 12.107266297730096 ], [ -86.296608541264249, 12.108155784825701 ], [ -86.29748089523666, 12.108243705725616 ], [ -86.29647909403181, 12.117882330917968 ], [ -86.295903184103153, 12.122980016359639 ], [ -86.297834382300962, 12.123298920374561 ], [ -86.29822919186833, 12.123298920374561 ], [ -86.298967427368822, 12.123198181526986 ], [ -86.29936223693619, 12.123181406353384 ], [ -86.299654009740465, 12.123214956699533 ], [ -86.299568220630846, 12.123659717957612 ], [ -86.299438414072284, 12.125264505967751 ], [ -86.297891874479149, 12.125489695456661 ], [ -86.297647622553384, 12.12541890658165 ], [ -86.296435346077473, 12.125586832517591 ], [ -86.296378033562334, 12.125680192968655 ], [ -86.295618867315738, 12.125749576537665 ], [ -86.293828075796853, 12.125871129480844 ], [ -86.291920772785602, 12.125932432895036 ], [ -86.29184261935589, 12.126032468092252 ], [ -86.291594235179829, 12.127805693322646 ], [ -86.29144008427707, 12.128383328336435 ], [ -86.291214876635337, 12.128838005343747 ], [ -86.290625042819784, 12.129665503211518 ], [ -86.290398218210555, 12.130189648271537 ], [ -86.290312518932438, 12.130693065445397 ], [ -86.290257362374007, 12.132094495860732 ], [ -86.290190348053812, 12.132356829606799 ], [ -86.289797424948532, 12.133219007361102 ], [ -86.289637884154075, 12.133468956711122 ], [ -86.28908793553714, 12.134184551797054 ], [ -86.288704265079275, 12.134596360616419 ], [ -86.288501335656591, 12.134922364502373 ], [ -86.288398388725042, 12.135174068738463 ], [ -86.288303885957163, 12.135694426532678 ], [ -86.288317001360298, 12.13631481464911 ], [ -86.288283673863276, 12.136745853560143 ], [ -86.288245225969092, 12.136941085502494 ], [ -86.28808793096286, 12.137089331704143 ], [ -86.287986421335759, 12.137104788649328 ], [ -86.287849967244085, 12.137068166226607 ], [ -86.286418950996492, 12.136241833052972 ], [ -86.284156993111068, 12.135007905326658 ], [ -86.283806200992629, 12.134918061113165 ], [ -86.28303221254383, 12.134879594079946 ], [ -86.282500050569524, 12.134908488267509 ], [ -86.281616018498411, 12.135055769533599 ], [ -86.281452884442828, 12.135039082930314 ], [ -86.281332689857791, 12.134986915332268 ], [ -86.281200727342565, 12.134872392488626 ], [ -86.281101643166735, 12.134842620054194 ], [ -86.280899881553921, 12.13487704717571 ], [ -86.280817146716259, 12.134938085046066 ], [ -86.280724889736561, 12.135139378182721 ], [ -86.280760283358759, 12.135310108367911 ], [ -86.280811666993003, 12.135382211978085 ], [ -86.280952522829551, 12.13547056302559 ], [ -86.281066608870645, 12.135639799990038 ], [ -86.281316699845746, 12.136288906623893 ], [ -86.281610448943653, 12.136808823122635 ], [ -86.282512537151959, 12.137910919791874 ], [ -86.282698488415775, 12.13820398592904 ], [ -86.282861802134434, 12.1386172815278 ], [ -86.282969150810871, 12.13910698241021 ], [ -86.282974001713427, 12.139639100766658 ], [ -86.282351648884571, 12.145900259746529 ], [ -86.279397898398869, 12.145601405909455 ], [ -86.278031021862546, 12.145318798593001 ], [ -86.27569773774357, 12.144900595419513 ], [ -86.275548437743353, 12.145732785715783 ], [ -86.275318469030623, 12.1458526609504 ], [ -86.275153448512938, 12.145893058453202 ], [ -86.27500513665953, 12.145861091734108 ], [ -86.274859789246563, 12.145721895948205 ], [ -86.274684438103094, 12.14565076116515 ], [ -86.274588498030738, 12.145656557333375 ], [ -86.27444934899323, 12.145723828003778 ], [ -86.274189735876121, 12.145672013781349 ], [ -86.27383759628475, 12.145392831551689 ], [ -86.273601968185716, 12.145296492098444 ], [ -86.273213536656868, 12.145223864246907 ], [ -86.272866607294148, 12.145219912307629 ], [ -86.272744975404677, 12.145260924652465 ], [ -86.272445836415073, 12.145429101546485 ], [ -86.272300399170561, 12.145564433372062 ], [ -86.272121364934435, 12.145637148951426 ], [ -86.271568451877073, 12.145631616244998 ], [ -86.271052100251751, 12.145496899199051 ], [ -86.270760237615931, 12.145353575643774 ], [ -86.270500175341184, 12.145119796492832 ], [ -86.270343329492576, 12.144878727994854 ], [ -86.27018962774747, 12.144780719756207 ], [ -86.267895510174881, 12.144352679767843 ], [ -86.265626635261796, 12.14397241387473 ], [ -86.264098870458085, 12.144121007447719 ], [ -86.263596263056613, 12.144063923638123 ], [ -86.262969508482882, 12.143921828809679 ], [ -86.262437436340107, 12.143940973852793 ], [ -86.262209623584056, 12.14399287623338 ], [ -86.26198639223594, 12.144063221068071 ], [ -86.26161709482264, 12.144271093897952 ], [ -86.260453327372062, 12.145282177299757 ], [ -86.260310944399535, 12.144947316176234 ], [ -86.260109272618237, 12.144299021033833 ], [ -86.259787046925837, 12.142923913487111 ], [ -86.259775728153272, 12.142151521122754 ], [ -86.259687603423885, 12.141108458543902 ], [ -86.259502280980769, 12.140039747687235 ], [ -86.259040097767098, 12.138279426036238 ], [ -86.258956823940252, 12.137978631535152 ], [ -86.2588952893433, 12.137878600821438 ], [ -86.25835333573238, 12.135798497969583 ], [ -86.257818838138334, 12.133914052162282 ], [ -86.257719214973321, 12.133230688063282 ], [ -86.257769071471586, 12.132958606611838 ], [ -86.257914149389975, 12.13265227312816 ], [ -86.257920437596951, 12.132537924931333 ], [ -86.257883696501835, 12.132429109666207 ], [ -86.257809046501734, 12.132340933260606 ], [ -86.257519339822608, 12.132210600751076 ], [ -86.257353780315739, 12.132007900198568 ], [ -86.257198820929219, 12.131457586742679 ], [ -86.257033890243065, 12.131049022618587 ], [ -86.256306075199873, 12.129724610103795 ], [ -86.256154529411432, 12.129098410118473 ], [ -86.256239150711195, 12.128141278603104 ], [ -86.256233940482545, 12.127725858918673 ], [ -86.256092006667672, 12.127208296025776 ], [ -86.255942976162046, 12.126805521967912 ], [ -86.255504688134906, 12.126234821879505 ], [ -86.254780196858277, 12.125750279155984 ], [ -86.25458948452345, 12.125681422551045 ], [ -86.253699793066062, 12.125094998933742 ], [ -86.253404516832177, 12.124775482273051 ], [ -86.253252701549158, 12.124508749682345 ], [ -86.252563064905544, 12.12190025424502 ], [ -86.252522640717757, 12.121174965021797 ], [ -86.252556327540916, 12.118945246024261 ], [ -86.252536384941592, 12.118505483198037 ], [ -86.252054618454736, 12.117821376973405 ], [ -86.251180288188692, 12.116701806872582 ], [ -86.250304700281262, 12.117392591050583 ], [ -86.24416318817832, 12.121950492175822 ], [ -86.244118901234813, 12.122102962481343 ], [ -86.24415573216146, 12.122214328985825 ], [ -86.24591274702567, 12.124205392634929 ], [ -86.245966286616607, 12.124305077168879 ], [ -86.245981018987251, 12.124657881074803 ], [ -86.245618009780941, 12.126285498129443 ], [ -86.245542730960139, 12.126440512941643 ], [ -86.245317882644514, 12.126756953663833 ], [ -86.24451362097065, 12.127561974357745 ], [ -86.243920822714657, 12.128268363523144 ], [ -86.24552278836083, 12.12949169549845 ], [ -86.24499637560433, 12.130219596877392 ], [ -86.244657620910687, 12.130746726919888 ], [ -86.244582611584462, 12.131151778486894 ], [ -86.244552697685506, 12.13158027881331 ], [ -86.243231994554804, 12.13144590596278 ], [ -86.242600209415471, 12.131507295920551 ], [ -86.239769977281327, 12.131501762920646 ], [ -86.239370765969056, 12.134655466415207 ], [ -86.239039287629225, 12.13759018896601 ], [ -86.238107914342649, 12.137483307879389 ], [ -86.237926274992191, 12.139545218268697 ], [ -86.237459510370584, 12.146333829938721 ], [ -86.236055443581492, 12.146165829257354 ], [ -86.23586544989891, 12.146179617085178 ], [ -86.234692339969371, 12.146002746424456 ], [ -86.234505400558746, 12.145946892507199 ], [ -86.234288906575287, 12.145833603865423 ], [ -86.234097924745868, 12.145599298211515 ], [ -86.23397260976374, 12.145541424331944 ], [ -86.233831214938022, 12.145564609013588 ], [ -86.233729076490221, 12.14566481248184 ], [ -86.233616607416636, 12.14566639325492 ], [ -86.231593511565265, 12.14542242716526 ], [ -86.228989115893555, 12.14519980132679 ], [ -86.228759416675402, 12.145163970405227 ], [ -86.228590892728107, 12.145096963056112 ], [ -86.228269385687909, 12.14506227379273 ], [ -86.227874576120541, 12.144914207670906 ], [ -86.227466830813086, 12.148937958671079 ], [ -86.225795515226991, 12.148788050491381 ] ] } },
{ "type": "Feature", "properties": { "name": "Terminal MR4" }, "geometry": { "type": "Point", "coordinates": [ -86.297273564069087, 12.097252666293164 ] } },
{ "type": "Feature", "properties": { "name": "Camino a San Isidro de Bolas" }, "geometry": { "type": "Point", "coordinates": [ -86.291750272544675, 12.10189092900359 ] } },
{ "type": "Feature", "properties": { "name": "Pulpería El Bulky" }, "geometry": { "type": "Point", "coordinates": [ -86.29676071587339, 12.103405290380204 ] } },
{ "type": "Feature", "properties": { "name": "Colegio Rodolfo Rodríguez Alvarado" }, "geometry": { "type": "Point", "coordinates": [ -86.296691276101924, 12.106803766783049 ] } },
{ "type": "Feature", "properties": { "name": "Cooperativa Samuel Mairena" }, "geometry": { "type": "Point", "coordinates": [ -86.296555540662482, 12.10792741871666 ] } },
{ "type": "Feature", "properties": { "name": "Farmacia López Vargas" }, "geometry": { "type": "Point", "coordinates": [ -86.297325307029467, 12.109372797227399 ] } },
{ "type": "Feature", "properties": { "name": "Pulpería Esperanza" }, "geometry": { "type": "Point", "coordinates": [ -86.296961669002442, 12.112942557021523 ] } },
{ "type": "Feature", "properties": { "name": "El Ceibo" }, "geometry": { "type": "Point", "coordinates": [ -86.296612583683043, 12.116386408187356 ] } },
{ "type": "Feature", "properties": { "name": "Colegio Bautista Belén" }, "geometry": { "type": "Point", "coordinates": [ -86.296256132178286, 12.11932062917751 ] } },
{ "type": "Feature", "properties": { "name": "Parque Independencia" }, "geometry": { "type": "Point", "coordinates": [ -86.29693948061491, 12.123195897995567 ] } },
{ "type": "Feature", "properties": { "name": "Hospital Bertha Calderón" }, "geometry": { "type": "Point", "coordinates": [ -86.298903916478238, 12.125261871144206 ] } },
{ "type": "Feature", "properties": { "name": "El Zumen Norte" }, "geometry": { "type": "Point", "coordinates": [ -86.296934809375443, 12.125491452004189 ] } },
{ "type": "Feature", "properties": { "name": "Sporgym" }, "geometry": { "type": "Point", "coordinates": [ -86.291734641858753, 12.126487851724693 ] } },
{ "type": "Feature", "properties": { "name": "Benjamín Zeledón" }, "geometry": { "type": "Point", "coordinates": [ -86.290411423445235, 12.129988351396523 ] } },
{ "type": "Feature", "properties": { "name": "Repuestos Jarquín" }, "geometry": { "type": "Point", "coordinates": [ -86.289621894142016, 12.13343066511824 ] } },
{ "type": "Feature", "properties": { "name": "El Recreo" }, "geometry": { "type": "Point", "coordinates": [ -86.287457672959505, 12.136785374207797 ] } },
{ "type": "Feature", "properties": { "name": "Plaza España Norte" }, "geometry": { "type": "Point", "coordinates": [ -86.282500409895633, 12.134870899475764 ] } },
{ "type": "Feature", "properties": { "name": "Parque Las Madres" }, "geometry": { "type": "Point", "coordinates": [ -86.281253188955162, 12.136318064130062 ] } },
{ "type": "Feature", "properties": { "name": "Canal 2" }, "geometry": { "type": "Point", "coordinates": [ -86.282786882639741, 12.140709920967609 ] } },
{ "type": "Feature", "properties": { "name": "Panadería Norma" }, "geometry": { "type": "Point", "coordinates": [ -86.282432497260146, 12.144308330078493 ] } },
{ "type": "Feature", "properties": { "name": "27 De Mayo" }, "geometry": { "type": "Point", "coordinates": [ -86.282141532939633, 12.145823416667376 ] } },
{ "type": "Feature", "properties": { "name": "Mangueras" }, "geometry": { "type": "Point", "coordinates": [ -86.279159844848579, 12.145489961357162 ] } },
{ "type": "Feature", "properties": { "name": "Central Line" }, "geometry": { "type": "Point", "coordinates": [ -86.276137822401267, 12.144917808330833 ] } },
{ "type": "Feature", "properties": { "name": "Plaza Inter" }, "geometry": { "type": "Point", "coordinates": [ -86.273874786537519, 12.145336889685634 ] } },
{ "type": "Feature", "properties": { "name": "El Redentor" }, "geometry": { "type": "Point", "coordinates": [ -86.267135176118416, 12.144169396944424 ] } },
{ "type": "Feature", "properties": { "name": "Funeraria La Católica y La Auxiliadora" }, "geometry": { "type": "Point", "coordinates": [ -86.261567417987436, 12.144194425991003 ] } },
{ "type": "Feature", "properties": { "name": "Disco Bar Santo Domingo" }, "geometry": { "type": "Point", "coordinates": [ -86.259644124964126, 12.140405704135159 ] } },
{ "type": "Feature", "properties": { "name": "Colegio Cristo Rey" }, "geometry": { "type": "Point", "coordinates": [ -86.258720836515124, 12.136896822402601 ] } },
{ "type": "Feature", "properties": { "name": "Rotonda Cristo Rey" }, "geometry": { "type": "Point", "coordinates": [ -86.258043686453945, 12.134447410432323 ] } },
{ "type": "Feature", "properties": { "name": "Rotonda Santo Domingo" }, "geometry": { "type": "Point", "coordinates": [ -86.257385580676797, 12.131880553585427 ] } },
{ "type": "Feature", "properties": { "name": "Llantasa" }, "geometry": { "type": "Point", "coordinates": [ -86.256332306006172, 12.128147689937764 ] } },
{ "type": "Feature", "properties": { "name": "Altamira" }, "geometry": { "type": "Point", "coordinates": [ -86.254282620022394, 12.125355319536462 ] } },
{ "type": "Feature", "properties": { "name": "Centro Médico Trinidad" }, "geometry": { "type": "Point", "coordinates": [ -86.252623611355688, 12.121183660072605 ] } },
{ "type": "Feature", "properties": { "name": "Hospital Central" }, "geometry": { "type": "Point", "coordinates": [ -86.251928135662723, 12.117512566861617 ] } },
{ "type": "Feature", "properties": { "name": "Policía Distrito V" }, "geometry": { "type": "Point", "coordinates": [ -86.250015263096699, 12.117534700021451 ] } },
{ "type": "Feature", "properties": { "name": "Hospital Roberto Calderón" }, "geometry": { "type": "Point", "coordinates": [ -86.245913465677901, 12.120546197920071 ] } },
{ "type": "Feature", "properties": { "name": "Mercado Huembes Suroeste" }, "geometry": { "type": "Point", "coordinates": [ -86.244812939623316, 12.123053967696416 ] } },
{ "type": "Feature", "properties": { "name": "Escuela de Manejo" }, "geometry": { "type": "Point", "coordinates": [ -86.244772605267073, 12.12898458735447 ] } },
{ "type": "Feature", "properties": { "name": "Colegio República de Colombia" }, "geometry": { "type": "Point", "coordinates": [ -86.245306923198058, 12.129701863173544 ] } },
{ "type": "Feature", "properties": { "name": "Parque Colombia" }, "geometry": { "type": "Point", "coordinates": [ -86.243512179091908, 12.131413322731962 ] } },
{ "type": "Feature", "properties": { "name": "Don Bosco" }, "geometry": { "type": "Point", "coordinates": [ -86.241351910496661, 12.131474097919391 ] } },
{ "type": "Feature", "properties": { "name": "Pulpería Machado" }, "geometry": { "type": "Point", "coordinates": [ -86.239292073550175, 12.135029861385956 ] } },
{ "type": "Feature", "properties": { "name": "Pulpería Rosita" }, "geometry": { "type": "Point", "coordinates": [ -86.239032370601535, 12.137246887114749 ] } },
{ "type": "Feature", "properties": { "name": "Cementerio Oriental" }, "geometry": { "type": "Point", "coordinates": [ -86.237892408505999, 12.139388366799789 ] } },
{ "type": "Feature", "properties": { "name": "Iglesia Carmen de Santidad" }, "geometry": { "type": "Point", "coordinates": [ -86.237683550202433, 12.142310390866552 ] } },
{ "type": "Feature", "properties": { "name": "Parque Maestro Gabriel" }, "geometry": { "type": "Point", "coordinates": [ -86.237446125472843, 12.145984567556452 ] } },
{ "type": "Feature", "properties": { "name": "Rotonda Bello Horizonte Oeste" }, "geometry": { "type": "Point", "coordinates": [ -86.234697280703429, 12.145905353344141 ] } },
{ "type": "Feature", "properties": { "name": "Parque Amistad" }, "geometry": { "type": "Point", "coordinates": [ -86.231982841409405, 12.145388177048378 ] } },
{ "type": "Feature", "properties": { "name": "La Taquiza" }, "geometry": { "type": "Point", "coordinates": [ -86.228596641945927, 12.145052876953526 ] } },
{ "type": "Feature", "properties": { "name": "Peluqueria Leysi" }, "geometry": { "type": "Point", "coordinates": [ -86.227458296817886, 12.148198867495482 ] } },
{ "type": "Feature", "properties": { "name": "Terminal MR4" }, "geometry": { "type": "Point", "coordinates": [ -86.225801533939389, 12.148720868415085 ] } }
]
}
