{
"type": "FeatureCollection",
"features": [
{ "type": "Feature", "properties": { "name": "Ruta VAN: Comarca Los Vanegas -> Mercado Oriental", "attributes": { "operator": "Cooperativa Los Vanegas", "to": "Mercado Oriental", "ref": "VAN", "network": "IRTRAMMA", "from": "Comarca Los Vanegas" } }, "geometry": { "type": "LineString", "coordinates": [ [ -86.200653287391987, 12.068307513935689 ], [ -86.205018920009749, 12.069622304261269 ], [ -86.206424963092459, 12.069644792768219 ], [ -86.209824098296039, 12.069598058837602 ], [ -86.211961819177645, 12.070037111495916 ], [ -86.212983922307927, 12.070181353928922 ], [ -86.213728176520831, 12.070077959695849 ], [ -86.21522683590932, 12.069738172759303 ], [ -86.215470908172023, 12.069591031178174 ], [ -86.228717645014697, 12.084207812788643 ], [ -86.237873004895846, 12.094221932810553 ], [ -86.241483783180371, 12.098256549657338 ], [ -86.24149222734404, 12.098323393100346 ], [ -86.241592120003631, 12.09845778262636 ], [ -86.241733245334771, 12.098529193503873 ], [ -86.246057285954876, 12.103244025926433 ], [ -86.248391827715267, 12.105879932159791 ], [ -86.248664107077872, 12.106465431826914 ], [ -86.248751423323483, 12.10655194794553 ], [ -86.248960551121613, 12.106610181621761 ], [ -86.249157282168838, 12.106717689913765 ], [ -86.249487772361874, 12.107038457861217 ], [ -86.253217577421537, 12.111131728705182 ], [ -86.253659997698975, 12.111630965909029 ], [ -86.253724586567884, 12.111768159361352 ], [ -86.254790796978625, 12.112977162632957 ], [ -86.254973873633531, 12.113270168340794 ], [ -86.255059662743164, 12.113612710577103 ], [ -86.255120209193308, 12.113697731248703 ], [ -86.255312807990222, 12.113782488399517 ], [ -86.255425007569215, 12.113777394188109 ], [ -86.255645274476876, 12.113903607638813 ], [ -86.256938040002254, 12.115292302980855 ], [ -86.257152198365986, 12.115511528401994 ], [ -86.257290538919733, 12.115588116727839 ], [ -86.263293171479745, 12.122200276432611 ], [ -86.263822369013624, 12.122841423419098 ], [ -86.264092312756517, 12.123258958586922 ], [ -86.26465627509188, 12.124311225112493 ], [ -86.264959366668734, 12.125071373333391 ], [ -86.266021624492211, 12.128369276108288 ], [ -86.26603869248261, 12.128595780370491 ], [ -86.266006083637791, 12.128813765291071 ], [ -86.265934218415055, 12.128918717677182 ], [ -86.265890021303079, 12.12909647794233 ], [ -86.265919036886757, 12.129265982432596 ], [ -86.266011922687142, 12.129411861599333 ], [ -86.266138046153046, 12.129504254624516 ], [ -86.266252491520234, 12.129543073737707 ], [ -86.266494228163197, 12.129525947659054 ], [ -86.266692216851808, 12.129389378120687 ], [ -86.266875024012123, 12.12908137183744 ], [ -86.267145686407233, 12.128906948959795 ], [ -86.267371073712013, 12.128829574021328 ], [ -86.267503395553376, 12.128749388618719 ], [ -86.268511844291325, 12.12840800756033 ], [ -86.269437468360081, 12.127987494351402 ], [ -86.269839644112764, 12.127858213632578 ], [ -86.269895429491925, 12.127865327586804 ], [ -86.269977625340417, 12.127938926262621 ], [ -86.270049310900106, 12.128057667758814 ], [ -86.271026138940044, 12.130819797846522 ], [ -86.271884389362498, 12.133454729101553 ], [ -86.271867231540554, 12.133840718610086 ], [ -86.271432896100706, 12.136269585383101 ], [ -86.27124937028816, 12.136610605077157 ], [ -86.271110041587576, 12.136723721994898 ], [ -86.270135908493472, 12.136776328371186 ], [ -86.269852040863697, 12.136760520112286 ], [ -86.269321945014539, 12.136621583040995 ], [ -86.269031070525529, 12.136651530924048 ], [ -86.268770289598564, 12.136738476371939 ], [ -86.268539781896649, 12.136958123281049 ], [ -86.267988934964421, 12.138575477752223 ], [ -86.267826609392586, 12.138763945982635 ], [ -86.267752947539293, 12.138806715781509 ], [ -86.267460725577379, 12.138873988182251 ], [ -86.267322924012802, 12.138872583014795 ], [ -86.265785098077899, 12.138601912493414 ], [ -86.265101480146683, 12.142334190582298 ], [ -86.264742243864561, 12.144042495251037 ], [ -86.264053685199286, 12.146459501053441 ] ] } },
{ "type": "Feature", "properties": { "name": "Terminal Los Vanegas", "attributes": { "official_status": "IRTRAMMA:bus_station" } }, "geometry": { "type": "Point", "coordinates": [ -86.200635231254779, 12.068354599475978 ] } },
{ "type": "Feature", "properties": { "name": "Los Rocha", "attributes": { "official_status": "IRTRAMMA:bus_stop" } }, "geometry": { "type": "Point", "coordinates": [ -86.203465193894331, 12.069215753896151 ] } },
{ "type": "Feature", "properties": { "name": "Cenicera", "attributes": { "official_status": "IRTRAMMA:bus_stop" } }, "geometry": { "type": "Point", "coordinates": [ -86.204905103463247, 12.069659463004159 ] } },
{ "type": "Feature", "properties": { "name": "El Chato", "attributes": { "official_status": "IRTRAMMA:bus_stop" } }, "geometry": { "type": "Point", "coordinates": [ -86.205842136136113, 12.069698202964656 ] } },
{ "type": "Feature", "properties": { "name": "Alborada", "attributes": { "official_status": "IRTRAMMA:bus_stop" } }, "geometry": { "type": "Point", "coordinates": [ -86.207169576631472, 12.069684499033695 ] } },
{ "type": "Feature", "properties": { "name": "Los Robles", "attributes": { "official_status": "IRTRAMMA:bus_stop" } }, "geometry": { "type": "Point", "coordinates": [ -86.209758251785715, 12.069652786729218 ] } },
{ "type": "Feature", "properties": { "name": "El Avispero", "attributes": { "official_status": "IRTRAMMA:bus_stop" } }, "geometry": { "type": "Point", "coordinates": [ -86.211721070681506, 12.070028590472772 ] } },
{ "type": "Feature", "properties": { "name": "Entrada a la base", "attributes": { "official_status": "IRTRAMMA:bus_stop" } }, "geometry": { "type": "Point", "coordinates": [ -86.213781446617176, 12.070108354266383 ] } },
{ "type": "Feature", "properties": { "name": "KM 12 Carretera Masaya", "attributes": { "official_status": "IRTRAMMA:bus_stop" } }, "geometry": { "type": "Point", "coordinates": [ -86.215378381697747, 12.069708480912428 ] } },
{ "type": "Feature", "properties": { "name": "Entrada a Esquipulas", "attributes": { "official_status": "none" } }, "geometry": { "type": "Point", "coordinates": [ -86.220019797107724, 12.074726180633837 ] } },
{ "type": "Feature", "properties": { "name": "KM 10 1\/2 Carretera Masaya", "attributes": { "official_status": "IRTRAMMA:bus_stop" } }, "geometry": { "type": "Point", "coordinates": [ -86.226513897959691, 12.081893808655002 ] } },
{ "type": "Feature", "properties": { "name": "Bosques de Santa María", "attributes": { "official_status": "IRTRAMMA:bus_stop" } }, "geometry": { "type": "Point", "coordinates": [ -86.22927469032237, 12.084883572359232 ] } },
{ "type": "Feature", "properties": { "name": "Tercera entrada a Santo Domingo", "attributes": { "official_status": "none" } }, "geometry": { "type": "Point", "coordinates": [ -86.234136462471568, 12.090314797263249 ] } },
{ "type": "Feature", "properties": { "name": "Instituto de Desarrollo Rural", "attributes": { "official_status": "IRTRAMMA:bus_stop" } }, "geometry": { "type": "Point", "coordinates": [ -86.238676727580554, 12.095208874949659 ] } },
{ "type": "Feature", "properties": { "name": "Primera entrada a Las Colinas", "attributes": { "official_status": "IRTRAMMA:bus_stop" } }, "geometry": { "type": "Point", "coordinates": [ -86.241527710797769, 12.098472714791752 ] } },
{ "type": "Feature", "properties": { "name": "Plaza Familiar", "attributes": { "official_status": "IRTRAMMA:bus_stop" } }, "geometry": { "type": "Point", "coordinates": [ -86.244998711224071, 12.102245870573077 ] } },
{ "type": "Feature", "properties": { "name": "Galerías Santo Domingo", "attributes": { "official_status": "IRTRAMMA:bus_stop" } }, "geometry": { "type": "Point", "coordinates": [ -86.247549387641797, 12.10499263333854 ] } },
{ "type": "Feature", "properties": { "name": "Movistar", "attributes": { "official_status": "IRTRAMMA:bus_stop" } }, "geometry": { "type": "Point", "coordinates": [ -86.25080901448176, 12.10865695991742 ] } },
{ "type": "Feature", "properties": { "name": "El Minsterio", "attributes": { "official_status": "unset" } }, "geometry": { "type": "Point", "coordinates": [ -86.254533968638896, 12.112761887550946 ] } },
{ "type": "Feature", "properties": { "name": "Colegio Teresiano", "attributes": { "official_status": "IRTRAMMA:bus_stop" } }, "geometry": { "type": "Point", "coordinates": [ -86.259290188742185, 12.117878466403157 ] } },
{ "type": "Feature", "properties": { "name": "Pharaoh's", "attributes": { "official_status": "IRTRAMMA:bus_stop" } }, "geometry": { "type": "Point", "coordinates": [ -86.261172069430899, 12.11995115575154 ] } },
{ "type": "Feature", "properties": { "name": "Ministerio Público", "attributes": { "official_status": "IRTRAMMA:bus_stop" } }, "geometry": { "type": "Point", "coordinates": [ -86.264587823467238, 12.124294098697806 ] } },
{ "type": "Feature", "properties": { "name": "Metrocentro", "attributes": { "official_status": "IRTRAMMA:bus_stop" } }, "geometry": { "type": "Point", "coordinates": [ -86.265587917873034, 12.127180191444893 ] } },
{ "type": "Feature", "properties": { "name": "Monumento a los Alfabetizadores", "attributes": { "official_status": "IRTRAMMA:bus_stop" } }, "geometry": { "type": "Point", "coordinates": [ -86.268665007047261, 12.128229192918443 ] } },
{ "type": "Feature", "properties": { "name": "Cruz Azul", "attributes": { "official_status": "none" } }, "geometry": { "type": "Point", "coordinates": [ -86.265541295309802, 12.140224877625824 ] } },
{ "type": "Feature", "properties": { "name": "Ministerio de Defensa", "attributes": { "official_status": "none" } }, "geometry": { "type": "Point", "coordinates": [ -86.264881123407491, 12.143685677224363 ] } },
{ "type": "Feature", "properties": { "name": "Terminal Vanegas", "attributes": { "official_status": "IRTRAMMA:bus_station" } }, "geometry": { "type": "Point", "coordinates": [ -86.264130491156081, 12.146491818982501 ] } }
]
}
