{
"type": "FeatureCollection",
"features": [
{ "type": "Feature", "properties": { "name": "Ruta 170: Villa Jośe Benito Escobar -> Mercado Oriental", "attributes": { "operator": "Cooperativa La Reconciliación", "to": "Mercado Oriental", "ref": "170", "network": "IRTRAMMA", "from": "Villa Jośe Benito Escobar" } }, "geometry": { "type": "LineString", "coordinates": [ [ -86.189122781899613, 12.162432861572601 ], [ -86.188423084124807, 12.162390622461997 ], [ -86.188045522210899, 12.160762874825094 ], [ -86.187908169803961, 12.158791052811607 ], [ -86.188105619503403, 12.157540895679681 ], [ -86.188302799708268, 12.156807009607643 ], [ -86.188460993029807, 12.156458726960411 ], [ -86.18882543954058, 12.155356794895056 ], [ -86.188972493752573, 12.153488206960635 ], [ -86.189076877988597, 12.152648927621744 ], [ -86.189431263368178, 12.148619085341691 ], [ -86.189633294475584, 12.147994598350859 ], [ -86.189708034307216, 12.147468292820498 ], [ -86.195209945927871, 12.148036576287618 ], [ -86.212117048058758, 12.149591160404132 ], [ -86.214879816715055, 12.149805351911366 ], [ -86.221072622620724, 12.150366253577806 ], [ -86.221661737784061, 12.150393214063374 ], [ -86.221863589228377, 12.150476554439654 ], [ -86.223428993442496, 12.150659657282151 ], [ -86.223581886703855, 12.150690569596124 ], [ -86.223754812396052, 12.150812989349726 ], [ -86.223981277679158, 12.150857952688426 ], [ -86.224548384118037, 12.150797357562237 ], [ -86.225672985022229, 12.150865066028409 ], [ -86.226010571906002, 12.15086778841774 ], [ -86.22615762611801, 12.150833099906444 ], [ -86.23924284587261, 12.152033407587375 ], [ -86.255280468640009, 12.153456504608267 ], [ -86.258523027489545, 12.153715831496001 ], [ -86.258728112868909, 12.152499372806417 ], [ -86.260427545723402, 12.152566553928814 ], [ -86.260607118948698, 12.151986161162647 ], [ -86.260495907516543, 12.151981945867846 ] ] } },
{ "type": "Feature", "properties": { "name": "Terminal José Benito Escobar", "attributes": { "official_status": "IRTRAMMA:bus_station" } }, "geometry": { "type": "Point", "coordinates": [ -86.189129698927303, 12.162394661961436 ] } },
{ "type": "Feature", "properties": { "name": "Cancha Benito Escobar", "attributes": { "official_status": "IRTRAMMA:bus_stop" } }, "geometry": { "type": "Point", "coordinates": [ -86.188270190863463, 12.161627331597815 ] } },
{ "type": "Feature", "properties": { "name": "Colegio Las Américas", "attributes": { "official_status": "IRTRAMMA:bus_stop" } }, "geometry": { "type": "Point", "coordinates": [ -86.188033484786089, 12.159913431782327 ] } },
{ "type": "Feature", "properties": { "name": "El Molino", "attributes": { "official_status": "IRTRAMMA:bus_stop" } }, "geometry": { "type": "Point", "coordinates": [ -86.188265339960935, 12.15716512729532 ] } },
{ "type": "Feature", "properties": { "name": "Transagro", "attributes": { "official_status": "IRTRAMMA:bus_stop" } }, "geometry": { "type": "Point", "coordinates": [ -86.18890979134575, 12.15492367849181 ] } },
{ "type": "Feature", "properties": { "name": "Palí Las Mercedes", "attributes": { "official_status": "IRTRAMMA:bus_stop" } }, "geometry": { "type": "Point", "coordinates": [ -86.189217733825146, 12.151519492494513 ] } },
{ "type": "Feature", "properties": { "name": "Entrada a Las Mercedes", "attributes": { "official_status": "IRTRAMMA:bus_stop" } }, "geometry": { "type": "Point", "coordinates": [ -86.190031607472548, 12.14762048506563 ] } },
{ "type": "Feature", "properties": { "name": "Subasta", "attributes": { "official_status": "IRTRAMMA:bus_stop" } }, "geometry": { "type": "Point", "coordinates": [ -86.193191521315967, 12.147909500797681 ] } },
{ "type": "Feature", "properties": { "name": "Veterinaria Antares", "attributes": { "official_status": "IRTRAMMA:bus_stop" } }, "geometry": { "type": "Point", "coordinates": [ -86.197413692982863, 12.148280803441063 ] } },
{ "type": "Feature", "properties": { "name": "La Rocargo", "attributes": { "official_status": "IRTRAMMA:bus_stop" } }, "geometry": { "type": "Point", "coordinates": [ -86.199881993889051, 12.148561212118677 ] } },
{ "type": "Feature", "properties": { "name": "Entrada Barrio Hugo Chávez", "attributes": { "official_status": "IRTRAMMA:bus_stop" } }, "geometry": { "type": "Point", "coordinates": [ -86.202528251052996, 12.148794724788234 ] } },
{ "type": "Feature", "properties": { "name": "Bomberos Barrio Waspán", "attributes": { "official_status": "IRTRAMMA:bus_stop" } }, "geometry": { "type": "Point", "coordinates": [ -86.208234080243145, 12.149303288152007 ] } },
{ "type": "Feature", "properties": { "name": "Ecasa", "attributes": { "official_status": "IRTRAMMA:bus_stop" } }, "geometry": { "type": "Point", "coordinates": [ -86.211895164183574, 12.149634982296844 ] } },
{ "type": "Feature", "properties": { "name": "Siemens", "attributes": { "official_status": "IRTRAMMA:bus_stop" } }, "geometry": { "type": "Point", "coordinates": [ -86.217424384588853, 12.150111314388557 ] } },
{ "type": "Feature", "properties": { "name": "La Danto", "attributes": { "official_status": "IRTRAMMA:bus_stop" } }, "geometry": { "type": "Point", "coordinates": [ -86.220067946806978, 12.150356856925834 ] } },
{ "type": "Feature", "properties": { "name": "Sucursal Norte - DISSUR", "attributes": { "official_status": "IRTRAMMA:bus_stop" } }, "geometry": { "type": "Point", "coordinates": [ -86.223262086462725, 12.15068038258396 ] } },
{ "type": "Feature", "properties": { "name": "Nabisco", "attributes": { "official_status": "none" } }, "geometry": { "type": "Point", "coordinates": [ -86.226015871966169, 12.150879292707831 ] } },
{ "type": "Feature", "properties": { "name": "Iglesia Adventista Carretera Norte", "attributes": { "official_status": "IRTRAMMA:bus_stop" } }, "geometry": { "type": "Point", "coordinates": [ -86.231053534247991, 12.151340693367537 ] } },
{ "type": "Feature", "properties": { "name": "Coca Cola Carretera Norte", "attributes": { "official_status": "IRTRAMMA:bus_stop" } }, "geometry": { "type": "Point", "coordinates": [ -86.233493268728125, 12.151567880646237 ] } },
{ "type": "Feature", "properties": { "name": "Bar El Trebol", "attributes": { "official_status": "IRTRAMMA:bus_stop" } }, "geometry": { "type": "Point", "coordinates": [ -86.236133507179687, 12.151827560649521 ] } },
{ "type": "Feature", "properties": { "name": "SINSA Carretera Norte", "attributes": { "official_status": "IRTRAMMA:bus_stop" } }, "geometry": { "type": "Point", "coordinates": [ -86.243002474999699, 12.152417262522675 ] } },
{ "type": "Feature", "properties": { "name": "Súper de los Militares", "attributes": { "official_status": "IRTRAMMA:bus_stop" } }, "geometry": { "type": "Point", "coordinates": [ -86.246267940889012, 12.152731389107576 ] } },
{ "type": "Feature", "properties": { "name": "Provinco", "attributes": { "official_status": "IRTRAMMA:bus_stop" } }, "geometry": { "type": "Point", "coordinates": [ -86.249442766766151, 12.153025931841885 ] } },
{ "type": "Feature", "properties": { "name": "Quinta Nina", "attributes": { "official_status": "IRTRAMMA:bus_stop" } }, "geometry": { "type": "Point", "coordinates": [ -86.254457162682101, 12.153488294778779 ] } },
{ "type": "Feature", "properties": { "name": "Planta Eléctrica", "attributes": { "official_status": "IRTRAMMA:bus_stop" } }, "geometry": { "type": "Point", "coordinates": [ -86.257178608835332, 12.153649792299003 ] } },
{ "type": "Feature", "properties": { "name": "Llantera Vargas", "attributes": { "official_status": "IRTRAMMA:bus_stop" } }, "geometry": { "type": "Point", "coordinates": [ -86.258750031761849, 12.152752904613527 ] } },
{ "type": "Feature", "properties": { "name": "Terminal 170", "attributes": { "official_status": "IRTRAMMA:bus_station" } }, "geometry": { "type": "Point", "coordinates": [ -86.26050354319645, 12.15194488639812 ] } }
]
}
