{
"type": "FeatureCollection",
"features": [
{ "type": "Feature", "properties": { "name": "Ruta 175: Laureles Norte -> Memorial Sandino", "attributes": { "operator": "Cooperativa La Reconciliación", "to": "Memorial Sandino", "ref": "175", "network": "IRTRAMMA", "from": "Laureles Norte" } }, "geometry": { "type": "LineString", "coordinates": [ [ -86.198395641419935, 12.126918818700727 ], [ -86.198756404838036, 12.123963163453558 ], [ -86.201550434866235, 12.124682121505266 ], [ -86.203705762727438, 12.125574361034344 ], [ -86.203871322234292, 12.12561484943908 ], [ -86.205229215617777, 12.126216378181292 ], [ -86.20730010184225, 12.126970109608898 ], [ -86.208150177595613, 12.127152525995179 ], [ -86.211402168755654, 12.127683526474742 ], [ -86.213278479889581, 12.127927157501976 ], [ -86.215677520687365, 12.128168416991256 ], [ -86.216036217980303, 12.128439712894432 ], [ -86.216218575982992, 12.128502596593016 ], [ -86.216551222132694, 12.128492057426683 ], [ -86.21697864054488, 12.12834029338539 ], [ -86.21919532333996, 12.128739815551532 ], [ -86.220682663955884, 12.12889913242333 ], [ -86.223407972864834, 12.129127919716028 ], [ -86.22525167515397, 12.129416165077457 ], [ -86.226503208007813, 12.129532710264606 ], [ -86.227270099765875, 12.129640384973992 ], [ -86.227359751631212, 12.129686581450981 ], [ -86.229047506387033, 12.129921515882154 ], [ -86.230994874259935, 12.130428095289389 ], [ -86.231027842430848, 12.130539019188543 ], [ -86.231132136835356, 12.130617798841847 ], [ -86.231264009519066, 12.130616657107916 ], [ -86.231365429314636, 12.130538492234257 ], [ -86.231877199532008, 12.130680330723999 ], [ -86.231965863250537, 12.13064941608747 ], [ -86.232850793636914, 12.130976654359344 ], [ -86.233428679859202, 12.131246454371535 ], [ -86.23296919159138, 12.135149829262001 ], [ -86.23324389640527, 12.135145525876469 ], [ -86.233873615419427, 12.135205597619384 ], [ -86.238305274210575, 12.135719719847666 ], [ -86.238050511995993, 12.137975909014033 ], [ -86.237854499601013, 12.140768498476 ], [ -86.242769182520419, 12.141096602542641 ], [ -86.243236216636632, 12.14118521516156 ], [ -86.244253918022011, 12.141596486226886 ], [ -86.244551979033275, 12.141686328188024 ], [ -86.244749428732732, 12.14171153311205 ], [ -86.246790490889779, 12.141795403138225 ], [ -86.251135192761424, 12.142172949661985 ], [ -86.250823567189357, 12.145261715040201 ], [ -86.251348901967518, 12.145123924075417 ], [ -86.251894718334157, 12.145079574514522 ], [ -86.252143551667842, 12.145124451000836 ], [ -86.253536569178934, 12.14555178718232 ], [ -86.253715962741182, 12.145082384783953 ], [ -86.253801931513863, 12.144939763573264 ], [ -86.253998393066496, 12.144798371780352 ], [ -86.254847031515411, 12.144589357688066 ], [ -86.257252270688639, 12.144176159178295 ], [ -86.257612764612148, 12.144016763620032 ], [ -86.258041799991844, 12.143671801446009 ], [ -86.258816417261329, 12.144282949757894 ], [ -86.259872746203939, 12.144999306181596 ], [ -86.26025479969428, 12.14529745812777 ], [ -86.260345709201033, 12.145335396731435 ], [ -86.260453327372062, 12.145282177299757 ], [ -86.26161709482264, 12.144271093897952 ], [ -86.26198639223594, 12.144063221068071 ], [ -86.262209623584056, 12.14399287623338 ], [ -86.262437436340107, 12.143940973852793 ], [ -86.262969508482882, 12.143921828809679 ], [ -86.263596263056613, 12.144063923638123 ], [ -86.264098870458085, 12.144121007447719 ], [ -86.265626635261796, 12.14397241387473 ], [ -86.267895510174881, 12.144352679767843 ], [ -86.27018962774747, 12.144780719756207 ], [ -86.270343329492576, 12.144878727994854 ], [ -86.270500175341184, 12.145119796492832 ], [ -86.270760237615931, 12.145353575643774 ], [ -86.271052100251751, 12.145496899199051 ], [ -86.271568451877073, 12.145631616244998 ], [ -86.272121364934435, 12.145637148951426 ], [ -86.272484913129929, 12.14550146587969 ], [ -86.272851246102775, 12.145296492098444 ], [ -86.273464885273356, 12.145362796830714 ], [ -86.273631343095531, 12.145409868789576 ], [ -86.273862030460478, 12.145537033293531 ], [ -86.274139699714809, 12.14581217562079 ], [ -86.274407307837933, 12.146155729892575 ], [ -86.274580862350831, 12.146263485703971 ], [ -86.274747769330631, 12.146258919036397 ], [ -86.275243729198976, 12.146001429115231 ], [ -86.275845780102401, 12.145787146726292 ], [ -86.278762969156062, 12.146318549170211 ], [ -86.282265230954252, 12.146907999789073 ], [ -86.282061942205445, 12.149047996666075 ], [ -86.281818229268879, 12.151126766552844 ], [ -86.28184338209681, 12.151244356067107 ], [ -86.282220225358515, 12.152113761617599 ], [ -86.291932810210412, 12.152567871205546 ], [ -86.291987068453579, 12.152145200674187 ], [ -86.291920593122541, 12.151968948708436 ], [ -86.292146968574144, 12.149750025708295 ], [ -86.297326205344746, 12.150205105341552 ], [ -86.297540184045417, 12.145643208582143 ], [ -86.297516827848028, 12.145138677987093 ], [ -86.301000135193732, 12.145300795319972 ], [ -86.301227588623675, 12.145283758075115 ], [ -86.304886606438941, 12.144403352572171 ], [ -86.304911220277731, 12.143926746802544 ], [ -86.305036445428343, 12.143616210503948 ], [ -86.307203990377388, 12.140694552053981 ], [ -86.307405302832564, 12.140381201667319 ], [ -86.30768009747797, 12.139711905786731 ], [ -86.307729235324018, 12.139444573383818 ], [ -86.307801010715224, 12.138301469649097 ], [ -86.307868743687635, 12.138016659004697 ], [ -86.308070505300464, 12.137459771200492 ], [ -86.308080027442458, 12.137352802238084 ], [ -86.308034842183673, 12.137226424237809 ], [ -86.307868743687635, 12.13709995835405 ], [ -86.307681983940071, 12.137175662244456 ], [ -86.307548584120369, 12.137286583335053 ], [ -86.306932699161578, 12.137612583929426 ], [ -86.306179641458911, 12.137867008146314 ], [ -86.298576839883296, 12.139138949940092 ], [ -86.297966165153156, 12.139365269403227 ], [ -86.297843006127692, 12.139279203040994 ], [ -86.297800246320165, 12.139202270228356 ], [ -86.298200176284652, 12.13869843001458 ], [ -86.298534978391061, 12.138152960652349 ], [ -86.298885501014908, 12.137293521390662 ], [ -86.299111786634981, 12.136374798304615 ], [ -86.299442007333411, 12.134453031195513 ], [ -86.299882541148762, 12.132337859381398 ], [ -86.300071277189943, 12.131867906746038 ], [ -86.30038802315913, 12.131249089135935 ], [ -86.30080097869525, 12.130646517840107 ], [ -86.301214203725948, 12.130144681443541 ], [ -86.301384973461452, 12.130009517436356 ], [ -86.30154756852788, 12.129543512867924 ], [ -86.301597604689192, 12.129107631868065 ], [ -86.301599131825185, 12.128788295668128 ], [ -86.301421984051146, 12.127458865798848 ], [ -86.301007142052953, 12.125108524369416 ], [ -86.300952793978254, 12.125011562789345 ], [ -86.297891874479149, 12.125489695456661 ], [ -86.297647622553384, 12.12541890658165 ], [ -86.296435346077473, 12.125586832517591 ], [ -86.296378033562334, 12.125680192968655 ], [ -86.2944659694801, 12.125830289805968 ], [ -86.294624342464701, 12.124700301826669 ], [ -86.294758730431184, 12.124016914110319 ], [ -86.293510880670013, 12.123846791487967 ], [ -86.293774626037447, 12.122367413939376 ], [ -86.293886196795739, 12.122107266077414 ], [ -86.294023549202663, 12.121880668475715 ], [ -86.294169435604815, 12.121721259582454 ], [ -86.294289630189837, 12.121503093207183 ], [ -86.294628564546514, 12.118565470860114 ], [ -86.293751269840058, 12.1184865119873 ], [ -86.294007199864495, 12.115507400360874 ], [ -86.293921320923346, 12.11503750590094 ], [ -86.293715427060221, 12.114634625637077 ], [ -86.29358571033319, 12.114455977424889 ], [ -86.293578074653283, 12.114130651169914 ], [ -86.293386733497755, 12.11217446938984 ], [ -86.291103485540106, 12.112458429317195 ], [ -86.291193406900064, 12.111533999431579 ], [ -86.291034674589341, 12.11046051493428 ], [ -86.290997574168117, 12.109300950084636 ], [ -86.291023086322184, 12.108916418226693 ], [ -86.291095221039498, 12.108646068635556 ], [ -86.289780446789663, 12.108786513437813 ], [ -86.287152694920564, 12.108967800427967 ], [ -86.28722447031177, 12.108524420013556 ], [ -86.287215127832795, 12.108129610566188 ], [ -86.287146586376636, 12.108041865294938 ], [ -86.286982823500324, 12.107947093342966 ] ] } },
{ "type": "Feature", "properties": { "name": "Terminal Los Laureles Norte", "attributes": { "official_status": "IRTRAMMA:bus_station" } }, "geometry": { "type": "Point", "coordinates": [ -86.198413967051735, 12.126919521315967 ] } },
{ "type": "Feature", "properties": { "name": "Entrada Sur a Laureles Norte", "attributes": { "official_status": "IRTRAMMA:bus_stop" } }, "geometry": { "type": "Point", "coordinates": [ -86.198794044248444, 12.124109572488313 ] } },
{ "type": "Feature", "properties": { "name": "Andrés Castro", "attributes": { "official_status": "IRTRAMMA:bus_stop" } }, "geometry": { "type": "Point", "coordinates": [ -86.200185265128965, 12.124345390110797 ] } },
{ "type": "Feature", "properties": { "name": "Colegio San Ignacio de Loyola", "attributes": { "official_status": "IRTRAMMA:bus_stop" } }, "geometry": { "type": "Point", "coordinates": [ -86.203543077829465, 12.125541074467076 ] } },
{ "type": "Feature", "properties": { "name": "Palí La Sabana", "attributes": { "official_status": "none" } }, "geometry": { "type": "Point", "coordinates": [ -86.204824614413795, 12.126123193572269 ] } },
{ "type": "Feature", "properties": { "name": "El Madroño", "attributes": { "official_status": "none" } }, "geometry": { "type": "Point", "coordinates": [ -86.206495121516141, 12.126747819659903 ] } },
{ "type": "Feature", "properties": { "name": "Colegio Inmaculada Concepción", "attributes": { "official_status": "IRTRAMMA:bus_stop" } }, "geometry": { "type": "Point", "coordinates": [ -86.209643177597812, 12.12747019544654 ] } },
{ "type": "Feature", "properties": { "name": "Farmacia Sophya", "attributes": { "official_status": "IRTRAMMA:bus_stop" } }, "geometry": { "type": "Point", "coordinates": [ -86.211951219057312, 12.127812631625053 ] } },
{ "type": "Feature", "properties": { "name": "Mercado Iván Montenegro Sureste", "attributes": { "official_status": "IRTRAMMA:bus_stop" } }, "geometry": { "type": "Point", "coordinates": [ -86.214177244331353, 12.127880697240355 ] } },
{ "type": "Feature", "properties": { "name": "Mercado Iván Montenegro Sur", "attributes": { "official_status": "IRTRAMMA:bus_stop" } }, "geometry": { "type": "Point", "coordinates": [ -86.215896619785156, 12.128371823074696 ] } },
{ "type": "Feature", "properties": { "name": "Almacenes Tropigás", "attributes": { "official_status": "IRTRAMMA:bus_stop" } }, "geometry": { "type": "Point", "coordinates": [ -86.218503440908151, 12.128663055348881 ] } },
{ "type": "Feature", "properties": { "name": "Villa Austria", "attributes": { "official_status": "IRTRAMMA:bus_stop" } }, "geometry": { "type": "Point", "coordinates": [ -86.222718246389704, 12.129129061456345 ] } },
{ "type": "Feature", "properties": { "name": "Plaza Rubenia", "attributes": { "official_status": "none" } }, "geometry": { "type": "Point", "coordinates": [ -86.225693466610707, 12.129534730263636 ] } },
{ "type": "Feature", "properties": { "name": "Colonia Rubenia", "attributes": { "official_status": "none" } }, "geometry": { "type": "Point", "coordinates": [ -86.227878349044744, 12.129797856962517 ] } },
{ "type": "Feature", "properties": { "name": "Pista La Sabana", "attributes": { "official_status": "IRTRAMMA:bus_stop" } }, "geometry": { "type": "Point", "coordinates": [ -86.229534572934085, 12.130133088431965 ] } },
{ "type": "Feature", "properties": { "name": "Sucursal Rubenia - DISSUR", "attributes": { "official_status": "IRTRAMMA:bus_stop" } }, "geometry": { "type": "Point", "coordinates": [ -86.233113910183647, 12.131154325426726 ] } },
{ "type": "Feature", "properties": { "name": "Colegio San Rafael", "attributes": { "official_status": "IRTRAMMA:bus_stop" } }, "geometry": { "type": "Point", "coordinates": [ -86.233685687861993, 12.135218771245407 ] } },
{ "type": "Feature", "properties": { "name": "Barrio Meneses", "attributes": { "official_status": "IRTRAMMA:bus_stop" } }, "geometry": { "type": "Point", "coordinates": [ -86.238253621081739, 12.13591978285868 ] } },
{ "type": "Feature", "properties": { "name": "Barrio Meneses", "attributes": { "official_status": "IRTRAMMA:bus_stop" } }, "geometry": { "type": "Point", "coordinates": [ -86.238354142562031, 12.136089546481113 ] } },
{ "type": "Feature", "properties": { "name": "Cementerio Oriental", "attributes": { "official_status": "IRTRAMMA:bus_stop" } }, "geometry": { "type": "Point", "coordinates": [ -86.237892408505999, 12.139388366799789 ] } },
{ "type": "Feature", "properties": { "name": "El Edén", "attributes": { "official_status": "IRTRAMMA:bus_stop" } }, "geometry": { "type": "Point", "coordinates": [ -86.241602001471776, 12.141070607160245 ] } },
{ "type": "Feature", "properties": { "name": "Clínica de Salud del Pie", "attributes": { "official_status": "none" } }, "geometry": { "type": "Point", "coordinates": [ -86.243560598285725, 12.141355765827758 ] } },
{ "type": "Feature", "properties": { "name": "Bar Neptuno", "attributes": { "official_status": "IRTRAMMA:bus_stop" } }, "geometry": { "type": "Point", "coordinates": [ -86.245635347265946, 12.141804273160391 ] } },
{ "type": "Feature", "properties": { "name": "La Tiendona", "attributes": { "official_status": "IRTRAMMA:bus_stop" } }, "geometry": { "type": "Point", "coordinates": [ -86.249475285779425, 12.142089255398528 ] } },
{ "type": "Feature", "properties": { "name": "Cerrajería Tenderí", "attributes": { "official_status": "IRTRAMMA:bus_stop" } }, "geometry": { "type": "Point", "coordinates": [ -86.250968285781624, 12.143532867979815 ] } },
{ "type": "Feature", "properties": { "name": "Profamilia", "attributes": { "official_status": "IRTRAMMA:bus_stop" } }, "geometry": { "type": "Point", "coordinates": [ -86.25153197862241, 12.14513700938998 ] } },
{ "type": "Feature", "properties": { "name": "Semáforos de Ciudad Jardines", "attributes": { "official_status": "none" } }, "geometry": { "type": "Point", "coordinates": [ -86.253635204197138, 12.145380185353805 ] } },
{ "type": "Feature", "properties": { "name": "Boutique Inter Fashion", "attributes": { "official_status": "IRTRAMMA:bus_stop" } }, "geometry": { "type": "Point", "coordinates": [ -86.256144108954132, 12.144383065887364 ] } },
{ "type": "Feature", "properties": { "name": "Gancho de Camino", "attributes": { "official_status": "IRTRAMMA:bus_stop" } }, "geometry": { "type": "Point", "coordinates": [ -86.260856581103113, 12.145000272212004 ] } },
{ "type": "Feature", "properties": { "name": "El Redentor", "attributes": { "official_status": "IRTRAMMA:bus_stop" } }, "geometry": { "type": "Point", "coordinates": [ -86.266723388392165, 12.144218401180773 ] } },
{ "type": "Feature", "properties": { "name": "Plaza Inter", "attributes": { "official_status": "IRTRAMMA:bus_stop" } }, "geometry": { "type": "Point", "coordinates": [ -86.273691709882613, 12.14550691076804 ] } },
{ "type": "Feature", "properties": { "name": "Cabrera", "attributes": { "official_status": "IRTRAMMA:bus_stop" } }, "geometry": { "type": "Point", "coordinates": [ -86.277968319455724, 12.14620227478793 ] } },
{ "type": "Feature", "properties": { "name": "Semáforo CST", "attributes": { "official_status": "IRTRAMMA:bus_stop" } }, "geometry": { "type": "Point", "coordinates": [ -86.282157433120162, 12.147478479955609 ] } },
{ "type": "Feature", "properties": { "name": "MTI", "attributes": { "official_status": "IRTRAMMA:bus_stop" } }, "geometry": { "type": "Point", "coordinates": [ -86.283061677285147, 12.152208869143331 ] } },
{ "type": "Feature", "properties": { "name": "Ministerio de Hacienda y Crédito Público", "attributes": { "official_status": "IRTRAMMA:bus_stop" } }, "geometry": { "type": "Point", "coordinates": [ -86.285316897805927, 12.152314514859194 ] } },
{ "type": "Feature", "properties": { "name": "Delicias del Volga", "attributes": { "official_status": "none" } }, "geometry": { "type": "Point", "coordinates": [ -86.287762471335412, 12.152431576937596 ] } },
{ "type": "Feature", "properties": { "name": "Cementerio Central", "attributes": { "official_status": "IRTRAMMA:bus_stop" } }, "geometry": { "type": "Point", "coordinates": [ -86.291287819836413, 12.152596324381546 ] } },
{ "type": "Feature", "properties": { "name": "Las Vegas", "attributes": { "official_status": "IRTRAMMA:bus_stop" } }, "geometry": { "type": "Point", "coordinates": [ -86.292363103231494, 12.149815451137663 ] } },
{ "type": "Feature", "properties": { "name": "Pulpería Cinthia", "attributes": { "official_status": "IRTRAMMA:bus_stop" } }, "geometry": { "type": "Point", "coordinates": [ -86.295108085245204, 12.150084617332226 ] } },
{ "type": "Feature", "properties": { "name": "Hospital Dermatológico", "attributes": { "official_status": "IRTRAMMA:bus_stop" } }, "geometry": { "type": "Point", "coordinates": [ -86.297507575200598, 12.147542413001535 ] } },
{ "type": "Feature", "properties": { "name": "Barrio Miraflores", "attributes": { "official_status": "IRTRAMMA:bus_stop" } }, "geometry": { "type": "Point", "coordinates": [ -86.300567416721378, 12.145351555764689 ] } },
{ "type": "Feature", "properties": { "name": "El Seminario", "attributes": { "official_status": "IRTRAMMA:bus_stop" } }, "geometry": { "type": "Point", "coordinates": [ -86.30450338513873, 12.144572847324214 ] } },
{ "type": "Feature", "properties": { "name": "Ferretería 35 Avenida", "attributes": { "official_status": "IRTRAMMA:bus_stop" } }, "geometry": { "type": "Point", "coordinates": [ -86.305019377437944, 12.143829528605462 ] } },
{ "type": "Feature", "properties": { "name": "ENACAL", "attributes": { "official_status": "IRTRAMMA:bus_stop" } }, "geometry": { "type": "Point", "coordinates": [ -86.307544990859256, 12.140262114372124 ] } },
{ "type": "Feature", "properties": { "name": "Aldea SOS", "attributes": { "official_status": "IRTRAMMA:bus_stop" } }, "geometry": { "type": "Point", "coordinates": [ -86.30452692099918, 12.138041425159779 ] } },
{ "type": "Feature", "properties": { "name": "INVUR", "attributes": { "official_status": "none" } }, "geometry": { "type": "Point", "coordinates": [ -86.300134967743588, 12.138747610903645 ] } },
{ "type": "Feature", "properties": { "name": "Parque Héroes y Mártires", "attributes": { "official_status": "IRTRAMMA:bus_stop" } }, "geometry": { "type": "Point", "coordinates": [ -86.299515220029079, 12.134349749653245 ] } },
{ "type": "Feature", "properties": { "name": "Mercado Israel Lewites Oeste", "attributes": { "official_status": "IRTRAMMA:bus_stop" } }, "geometry": { "type": "Point", "coordinates": [ -86.301403299093238, 12.127076380123546 ] } },
{ "type": "Feature", "properties": { "name": "Hospital Bertha Calderón", "attributes": { "official_status": "IRTRAMMA:bus_stop" } }, "geometry": { "type": "Point", "coordinates": [ -86.298903916478238, 12.125261871144206 ] } },
{ "type": "Feature", "properties": { "name": "El Zumen Norte", "attributes": { "official_status": "IRTRAMMA:bus_stop" } }, "geometry": { "type": "Point", "coordinates": [ -86.296934809375443, 12.125491452004189 ] } },
{ "type": "Feature", "properties": { "name": "Barrio el Pilar", "attributes": { "official_status": "IRTRAMMA:bus_stop" } }, "geometry": { "type": "Point", "coordinates": [ -86.293712282956719, 12.123276963349122 ] } },
{ "type": "Feature", "properties": { "name": "Pulpería Wendy", "attributes": { "official_status": "IRTRAMMA:bus_stop" } }, "geometry": { "type": "Point", "coordinates": [ -86.29446300503966, 12.120629547632246 ] } },
{ "type": "Feature", "properties": { "name": "Super Boutique", "attributes": { "official_status": "IRTRAMMA:bus_stop" } }, "geometry": { "type": "Point", "coordinates": [ -86.293814421404534, 12.118321919111692 ] } },
{ "type": "Feature", "properties": { "name": "Centro Educativo Especial Melania Morales", "attributes": { "official_status": "IRTRAMMA:bus_stop" } }, "geometry": { "type": "Point", "coordinates": [ -86.294041964666008, 12.116271262542726 ] } },
{ "type": "Feature", "properties": { "name": "Colegio Roberto Vargas Bretes", "attributes": { "official_status": "IRTRAMMA:bus_stop" } }, "geometry": { "type": "Point", "coordinates": [ -86.293620834460796, 12.114123273356082 ] } },
{ "type": "Feature", "properties": { "name": "Barrio Franciso de Asís", "attributes": { "official_status": "none" } }, "geometry": { "type": "Point", "coordinates": [ -86.291185322062503, 12.112401777886578 ] } },
{ "type": "Feature", "properties": { "name": "Pozo Enacal", "attributes": { "official_status": "IRTRAMMA:bus_stop" } }, "geometry": { "type": "Point", "coordinates": [ -86.290814138187102, 12.108609617971235 ] } },
{ "type": "Feature", "properties": { "name": "Sombrero de Sandino", "attributes": { "official_status": "IRTRAMMA:bus_stop" } }, "geometry": { "type": "Point", "coordinates": [ -86.287215936316557, 12.108915012901381 ] } },
{ "type": "Feature", "properties": { "name": "Terminal Memorial Sandino", "attributes": { "official_status": "IRTRAMMA:bus_station" } }, "geometry": { "type": "Point", "coordinates": [ -86.287022618867411, 12.107898609439792 ] } }
]
}
